[
  {
    "id": "l2",
    "name": "Aarau",
    "district": "Aargau",
    "country": "Schweiz",
    "lat": 47.39254,
    "lon": 8.04422,
    "geonames": "https://www.geonames.org/2661881",
    "letter_count": 44
  },
  {
    "id": "l3",
    "name": "Aarburg",
    "district": "Aargau",
    "country": "Schweiz",
    "lat": 47.32067,
    "lon": 7.89986,
    "geonames": "https://www.geonames.org/2661879",
    "letter_count": 3
  },
  {
    "id": "l4",
    "name": "Aarwangen",
    "district": "Bern",
    "country": "Schweiz",
    "lat": 47.23845,
    "lon": 7.76854,
    "geonames": "https://www.geonames.org/2661874",
    "letter_count": 2
  },
  {
    "id": "l5",
    "name": "Aeugst am Albis",
    "district": "Zürich",
    "country": "Schweiz",
    "lat": 47.27541,
    "lon": 8.4897,
    "geonames": "https://www.geonames.org/7285035",
    "letter_count": 1
  },
  {
    "id": "l6",
    "name": "Allgäu",
    "district": "Bayern",
    "country": "Deutschland",
    "lat": 47.58333,
    "lon": 10.16667,
    "geonames": "https://www.geonames.org/2958342",
    "letter_count": 0
  },
  {
    "id": "l7",
    "name": "Altdorf",
    "district": "Uri",
    "country": "Schweiz",
    "lat": 46.88042,
    "lon": 8.64441,
    "geonames": "https://www.geonames.org/2661780",
    "letter_count": 1
  },
  {
    "id": "l8",
    "name": "Altenklingen",
    "district": "Thurgau",
    "country": "Schweiz",
    "lat": 47.60264,
    "lon": 9.07916,
    "geonames": "https://www.geonames.org/11571272",
    "letter_count": 2
  },
  {
    "id": "l9",
    "name": "Altnau",
    "district": "Thurgau",
    "country": "Schweiz",
    "lat": 47.61052,
    "lon": 9.2616,
    "geonames": "https://www.geonames.org/2661768",
    "letter_count": 1
  },
  {
    "id": "l10",
    "name": "Altstätten",
    "district": "St. Gallen",
    "country": "Schweiz",
    "lat": 47.37766,
    "lon": 9.54746,
    "geonames": "https://www.geonames.org/2661766",
    "letter_count": 1
  },
  {
    "id": "l12",
    "name": "Amberg",
    "district": "Bayern",
    "country": "Deutschland",
    "lat": 49.44287,
    "lon": 11.86267,
    "geonames": "https://www.geonames.org/2956656",
    "letter_count": 5
  },
  {
    "id": "l13",
    "name": "Amsterdam",
    "district": "Nordholland",
    "country": "Niederlande",
    "lat": 52.37403,
    "lon": 4.88969,
    "geonames": "https://www.geonames.org/2759794",
    "letter_count": 0
  },
  {
    "id": "l15",
    "name": "Antwerpen",
    "district": "Flandern",
    "country": "Belgien",
    "lat": 51.22047,
    "lon": 4.40026,
    "geonames": "https://www.geonames.org/2803138",
    "letter_count": 8
  },
  {
    "id": "l17",
    "name": "Appenzell (vor der Landteilung 1597)",
    "district": null,
    "country": "Schweiz",
    "lat": null,
    "lon": null,
    "geonames": null,
    "letter_count": 0
  },
  {
    "id": "l18",
    "name": "Augsburg",
    "district": "Bayern",
    "country": "Deutschland",
    "lat": 48.37154,
    "lon": 10.89851,
    "geonames": "https://www.geonames.org/2954172",
    "letter_count": 449
  },
  {
    "id": "l19",
    "name": "Auschwitz",
    "district": "Kleinpolen",
    "country": "Polen",
    "lat": 50.030544,
    "lon": 19.19281,
    "geonames": null,
    "letter_count": 1
  },
  {
    "id": "l20",
    "name": "l20",
    "district": null,
    "country": "Niederlande",
    "lat": 52.25,
    "lon": 5.75,
    "geonames": "https://www.geonames.org/2750405",
    "letter_count": 0
  },
  {
    "id": "l21",
    "name": "Baden",
    "district": "Aargau",
    "country": "Schweiz",
    "lat": 47.47333,
    "lon": 8.30592,
    "geonames": "https://www.geonames.org/2661646",
    "letter_count": 90
  },
  {
    "id": "l22",
    "name": "Oberbaden",
    "district": "Baden-Württemberg",
    "country": "Deutschland",
    "lat": 47.534228,
    "lon": 8.39119,
    "geonames": null,
    "letter_count": 2
  },
  {
    "id": "l24",
    "name": "Baden-Baden",
    "district": "Baden-Württemberg",
    "country": "Deutschland",
    "lat": 48.7606,
    "lon": 8.23975,
    "geonames": "https://www.geonames.org/2953504",
    "letter_count": 2
  },
  {
    "id": "l25",
    "name": "Balgach",
    "district": "St. Gallen",
    "country": "Schweiz",
    "lat": 47.40556,
    "lon": 9.60702,
    "geonames": "https://www.geonames.org/2661635",
    "letter_count": 1
  },
  {
    "id": "l26",
    "name": "Balingen",
    "district": "Baden-Württemberg",
    "country": "Deutschland",
    "lat": 48.27525,
    "lon": 8.85464,
    "geonames": "https://www.geonames.org/2953089",
    "letter_count": 1
  },
  {
    "id": "l27",
    "name": "Balzheim",
    "district": "Baden-Württemberg",
    "country": "Deutschland",
    "lat": 48.1713561,
    "lon": 10.07677,
    "geonames": null,
    "letter_count": 1
  },
  {
    "id": "l28",
    "name": "Basel",
    "district": "Basel-Stadt",
    "country": "Schweiz",
    "lat": 47.55839,
    "lon": 7.57327,
    "geonames": "https://www.geonames.org/2661604",
    "letter_count": 1335
  },
  {
    "id": "l30",
    "name": "Baxterley",
    "district": null,
    "country": "England",
    "lat": 52.57066,
    "lon": -1.5949,
    "geonames": "https://www.geonames.org/2656142",
    "letter_count": 1
  },
  {
    "id": "l31",
    "name": "Bedford",
    "district": null,
    "country": null,
    "lat": 52.13459,
    "lon": -0.46632,
    "geonames": null,
    "letter_count": 0
  },
  {
    "id": "l32",
    "name": "Belp",
    "district": "Bern",
    "country": "Schweiz",
    "lat": 46.89129,
    "lon": 7.49825,
    "geonames": "https://www.geonames.org/2661563",
    "letter_count": 2
  },
  {
    "id": "l33",
    "name": "Bem",
    "district": null,
    "country": null,
    "lat": null,
    "lon": null,
    "geonames": null,
    "letter_count": 0
  },
  {
    "id": "l34",
    "name": "Berg",
    "district": "St. Gallen",
    "country": "Schweiz",
    "lat": 47.48667,
    "lon": 9.40986,
    "geonames": "https://www.geonames.org/8533197",
    "letter_count": 0
  },
  {
    "id": "l35",
    "name": "Berg am Irchel",
    "district": "Zürich",
    "country": "Schweiz",
    "lat": 47.56228,
    "lon": 8.59305,
    "geonames": "https://www.geonames.org/7285202",
    "letter_count": 19
  },
  {
    "id": "l36",
    "name": "Bergamo",
    "district": "Lombardei",
    "country": "Italien",
    "lat": 45.69601,
    "lon": 9.66721,
    "geonames": "https://www.geonames.org/3182164",
    "letter_count": 2
  },
  {
    "id": "l37",
    "name": "Bergell (Bregaglia)",
    "district": "Graubünden",
    "country": "Schweiz",
    "lat": 46.36068,
    "lon": 9.62378,
    "geonames": "https://www.geonames.org/8260334",
    "letter_count": 0
  },
  {
    "id": "l38",
    "name": "Berleburg",
    "district": "Hessen",
    "country": "Deutschland",
    "lat": 51.05224,
    "lon": 8.39227,
    "geonames": null,
    "letter_count": 9
  },
  {
    "id": "l39",
    "name": "l39",
    "district": null,
    "country": "Luxemburg",
    "lat": 49.75,
    "lon": 6.16667,
    "geonames": "https://www.geonames.org/2960313",
    "letter_count": 0
  },
  {
    "id": "l40",
    "name": "Berlin",
    "district": "Berlin",
    "country": "Deutschland",
    "lat": 52.52437,
    "lon": 13.41053,
    "geonames": "https://www.geonames.org/2950159",
    "letter_count": 1
  },
  {
    "id": "l41",
    "name": "Bern",
    "district": "Bern",
    "country": "Schweiz",
    "lat": 46.94809,
    "lon": 7.44744,
    "geonames": "https://www.geonames.org/2661552",
    "letter_count": 994
  },
  {
    "id": "l42",
    "name": "Berlingen",
    "district": "Thurgau",
    "country": "Schweiz",
    "lat": 47.67388,
    "lon": 9.01969,
    "geonames": "https://www.geonames.org/6640176",
    "letter_count": 1
  },
  {
    "id": "l44",
    "name": "Betschwanden",
    "district": "Glarus",
    "country": "Schweiz",
    "lat": 46.94634,
    "lon": 9.02763,
    "geonames": "https://www.geonames.org/2661537",
    "letter_count": 1
  },
  {
    "id": "l45",
    "name": "Biberach",
    "district": "Baden-Württemberg",
    "country": "Deutschland",
    "lat": 48.09345,
    "lon": 9.79053,
    "geonames": "https://www.geonames.org/2949423",
    "letter_count": 2
  },
  {
    "id": "l46",
    "name": "Biberstein",
    "district": "Aargau",
    "country": "Schweiz",
    "lat": 47.41641,
    "lon": 8.08508,
    "geonames": "https://www.geonames.org/8334613",
    "letter_count": 6
  },
  {
    "id": "l47",
    "name": "Bychow",
    "district": null,
    "country": "Polen",
    "lat": 54.74192,
    "lon": 17.977504,
    "geonames": null,
    "letter_count": 1
  },
  {
    "id": "l48",
    "name": "Biecz",
    "district": null,
    "country": null,
    "lat": 49.73596,
    "lon": 21.26301,
    "geonames": null,
    "letter_count": 0
  },
  {
    "id": "l49",
    "name": "Biel/Bienne",
    "district": "Bern",
    "country": "Schweiz",
    "lat": 47.13713,
    "lon": 7.24608,
    "geonames": "https://www.geonames.org/2661513",
    "letter_count": 148
  },
  {
    "id": "l50",
    "name": "Bischofszell",
    "district": "Thurgau",
    "country": "Schweiz",
    "lat": 47.49575,
    "lon": 9.23882,
    "geonames": "https://www.geonames.org/8394414",
    "letter_count": 1
  },
  {
    "id": "l51",
    "name": "Bishopstorpe",
    "district": null,
    "country": null,
    "lat": 53.918722,
    "lon": -1.100807,
    "geonames": null,
    "letter_count": 1
  },
  {
    "id": "l52",
    "name": "Blaubeuren",
    "district": "Baden-Württemberg",
    "country": "Deutschland",
    "lat": 48.41215,
    "lon": 9.78427,
    "geonames": "https://www.geonames.org/2947949",
    "letter_count": 1
  },
  {
    "id": "l54",
    "name": "Bocksberg",
    "district": "Nordrhein-Westfalen",
    "country": "Deutschland",
    "lat": 50.62867,
    "lon": 10.71644,
    "geonames": null,
    "letter_count": 18
  },
  {
    "id": "l55",
    "name": "Bologna",
    "district": "Emilia-Romagna",
    "country": "Italien",
    "lat": 44.49381,
    "lon": 11.33875,
    "geonames": "https://www.geonames.org/3181928",
    "letter_count": 2
  },
  {
    "id": "l56",
    "name": "Bonn",
    "district": "Nordrhein-Westfalen",
    "country": "Deutschland",
    "lat": 50.73438,
    "lon": 7.09549,
    "geonames": "https://www.geonames.org/2946447",
    "letter_count": 6
  },
  {
    "id": "l57",
    "name": "Boppelsen",
    "district": "Zürich",
    "country": "Schweiz",
    "lat": 47.46945,
    "lon": 8.40614,
    "geonames": "https://www.geonames.org/6291464",
    "letter_count": 0
  },
  {
    "id": "l58",
    "name": "Borssum",
    "district": "Niedersachsen",
    "country": "Deutschland",
    "lat": 53.345288,
    "lon": 7.223598,
    "geonames": null,
    "letter_count": 1
  },
  {
    "id": "l59",
    "name": "Bourges",
    "district": "Centre-Val de Loire",
    "country": "Frankreich",
    "lat": 47.08333,
    "lon": 2.4,
    "geonames": "https://www.geonames.org/3031005",
    "letter_count": 3
  },
  {
    "id": "l60",
    "name": "Bradgate",
    "district": "Leicestershire",
    "country": "England",
    "lat": 52.68857,
    "lon": -1.20606,
    "geonames": "https://www.geonames.org/12047309",
    "letter_count": 8
  },
  {
    "id": "l61",
    "name": "Bremen",
    "district": "Bremen",
    "country": "Deutschland",
    "lat": 53.07582,
    "lon": 8.80717,
    "geonames": "https://www.geonames.org/2944388",
    "letter_count": 5
  },
  {
    "id": "l62",
    "name": "Bremgarten",
    "district": "Aargau",
    "country": "Schweiz",
    "lat": 47.35109,
    "lon": 8.34214,
    "geonames": "https://www.geonames.org/2661407",
    "letter_count": 14
  },
  {
    "id": "l64",
    "name": "Breisach am Rhein",
    "district": "Baden-Württemberg",
    "country": "Deutschland",
    "lat": 48.03279,
    "lon": 7.58294,
    "geonames": "https://www.geonames.org/2944800",
    "letter_count": 0
  },
  {
    "id": "l65",
    "name": "Brescia",
    "district": "Lombardei",
    "country": "Italien",
    "lat": 45.77958045,
    "lon": 10.4258729694612,
    "geonames": null,
    "letter_count": 0
  },
  {
    "id": "l66",
    "name": "Breslau (Wrocław)",
    "district": "Woiwodschaft Niederschlesien",
    "country": "Polen",
    "lat": 51.1,
    "lon": 17.03333,
    "geonames": "https://www.geonames.org/3081368",
    "letter_count": 3
  },
  {
    "id": "l67",
    "name": "Brest",
    "district": "Metropolitanes Frankreich",
    "country": "Frankreich",
    "lat": 52.09755,
    "lon": 23.68775,
    "geonames": null,
    "letter_count": 1
  },
  {
    "id": "l68",
    "name": "Brest-Litowsk",
    "district": "Brest",
    "country": "Weißrussland",
    "lat": 52.08716065,
    "lon": 23.654728953991174,
    "geonames": null,
    "letter_count": 1
  },
  {
    "id": "l69",
    "name": "Brugg",
    "district": "Aargau",
    "country": "Schweiz",
    "lat": 47.48096,
    "lon": 8.20869,
    "geonames": "https://www.geonames.org/2661374",
    "letter_count": 18
  },
  {
    "id": "l70",
    "name": "Bubikon",
    "district": "Zürich",
    "country": "Schweiz",
    "lat": 47.26698,
    "lon": 8.8179,
    "geonames": "https://www.geonames.org/2661359",
    "letter_count": 15
  },
  {
    "id": "l71",
    "name": "Buchs",
    "district": "Zürich",
    "country": "Schweiz",
    "lat": 47.45876,
    "lon": 8.43661,
    "geonames": "https://www.geonames.org/2661347",
    "letter_count": 1
  },
  {
    "id": "l72",
    "name": "Burg Hohen-Aschau",
    "district": "Bayern",
    "country": "Deutschland",
    "lat": 47.765724,
    "lon": 12.322122,
    "geonames": null,
    "letter_count": 1
  },
  {
    "id": "l73",
    "name": "Rheinfelden",
    "district": "Aargau",
    "country": "Schweiz",
    "lat": 47.55437,
    "lon": 7.79403,
    "geonames": "https://www.geonames.org/2659060",
    "letter_count": 8
  },
  {
    "id": "l74",
    "name": "Burg Tarnow",
    "district": "Kleinpolen",
    "country": "Polen",
    "lat": 49.989167,
    "lon": 20.9975,
    "geonames": null,
    "letter_count": 1
  },
  {
    "id": "l75",
    "name": "Burgund",
    "district": "Burgund",
    "country": "Frankreich",
    "lat": 47.25,
    "lon": 4.16667,
    "geonames": "https://www.geonames.org/3030967",
    "letter_count": 1
  },
  {
    "id": "l76",
    "name": "Burtenbach",
    "district": "Bayern",
    "country": "Deutschland",
    "lat": 48.34051,
    "lon": 10.4528,
    "geonames": "https://www.geonames.org/2940929",
    "letter_count": 1
  },
  {
    "id": "l77",
    "name": "Buschhoven",
    "district": "Nordrhein-Westfalen",
    "country": "Deutschland",
    "lat": 50.68213,
    "lon": 6.9777,
    "geonames": null,
    "letter_count": 4
  },
  {
    "id": "l78",
    "name": "Bussnang",
    "district": "Thurgau",
    "country": "Schweiz",
    "lat": 47.55678,
    "lon": 9.08157,
    "geonames": "https://www.geonames.org/8505043",
    "letter_count": 1
  },
  {
    "id": "l80",
    "name": "Böblingen",
    "district": "Baden-Württemberg",
    "country": "Deutschland",
    "lat": 48.68212,
    "lon": 9.01171,
    "geonames": "https://www.geonames.org/2947444",
    "letter_count": 1
  },
  {
    "id": "l82",
    "name": "Bülach",
    "district": "Zürich",
    "country": "Schweiz",
    "lat": 47.52197,
    "lon": 8.54049,
    "geonames": "https://www.geonames.org/2661338",
    "letter_count": 1
  },
  {
    "id": "l84",
    "name": "Calcinato",
    "district": "Lombardei",
    "country": "Italien",
    "lat": 45.45739,
    "lon": 10.40949,
    "geonames": null,
    "letter_count": 8
  },
  {
    "id": "l85",
    "name": "Calvidum",
    "district": null,
    "country": "Frankreich",
    "lat": 49.651262,
    "lon": 3.271651,
    "geonames": null,
    "letter_count": 1
  },
  {
    "id": "l86",
    "name": "Cambridge",
    "district": "Cambridgeshire",
    "country": "England",
    "lat": 52.2,
    "lon": 0.11667,
    "geonames": "https://www.geonames.org/2653941",
    "letter_count": 5
  },
  {
    "id": "l87",
    "name": "Casaccia",
    "district": "Piemont",
    "country": "Italien",
    "lat": 46.39105,
    "lon": 9.66609,
    "geonames": null,
    "letter_count": 2
  },
  {
    "id": "l88",
    "name": "Caspano",
    "district": "Lombardei",
    "country": "Italien",
    "lat": 46.16924,
    "lon": 9.59999,
    "geonames": null,
    "letter_count": 6
  },
  {
    "id": "l90",
    "name": "Cham",
    "district": "Zug",
    "country": "Schweiz",
    "lat": 47.18213,
    "lon": 8.46358,
    "geonames": "https://www.geonames.org/2661228",
    "letter_count": 1
  },
  {
    "id": "l91",
    "name": "Chambéry",
    "district": "Auvergne-Rhône-Alpes",
    "country": "Frankreich",
    "lat": 45.56628,
    "lon": 5.92079,
    "geonames": "https://www.geonames.org/3027422",
    "letter_count": 2
  },
  {
    "id": "l93",
    "name": "Chiavenna",
    "district": "Lombardei",
    "country": "Italien",
    "lat": 46.32063,
    "lon": 9.39816,
    "geonames": "https://www.geonames.org/3178829",
    "letter_count": 111
  },
  {
    "id": "l98",
    "name": "Chur",
    "district": "Graubünden",
    "country": "Schweiz",
    "lat": 46.84986,
    "lon": 9.53287,
    "geonames": "https://www.geonames.org/2661169",
    "letter_count": 975
  },
  {
    "id": "l100",
    "name": "Châtillon-sur-Loing",
    "district": "Metropolitanes Frankreich",
    "country": "Frankreich",
    "lat": 47.824021,
    "lon": 2.845216,
    "geonames": null,
    "letter_count": 2
  },
  {
    "id": "l101",
    "name": "Colmar",
    "district": "Grand Est",
    "country": "Frankreich",
    "lat": 48.08078,
    "lon": 7.35584,
    "geonames": "https://www.geonames.org/3024297",
    "letter_count": 1
  },
  {
    "id": "l102",
    "name": "Compagnie",
    "district": "Metropolitanes Frankreich",
    "country": "Frankreich",
    "lat": 52.98968,
    "lon": 6.89382,
    "geonames": null,
    "letter_count": 0
  },
  {
    "id": "l103",
    "name": "Coventry",
    "district": null,
    "country": null,
    "lat": 52.40656,
    "lon": -1.51217,
    "geonames": null,
    "letter_count": 1
  },
  {
    "id": "l104",
    "name": "Cremona",
    "district": "Lombardei",
    "country": "Italien",
    "lat": 45.13325,
    "lon": 10.02129,
    "geonames": null,
    "letter_count": 0
  },
  {
    "id": "l105",
    "name": "Danzig (Gdansk)",
    "district": "Pommern",
    "country": "Polen",
    "lat": 54.35227,
    "lon": 18.64912,
    "geonames": "https://www.geonames.org/3099434",
    "letter_count": 3
  },
  {
    "id": "l106",
    "name": "Gdańsk",
    "district": "Pommern",
    "country": "Polen",
    "lat": 54.36143405,
    "lon": 18.62821847557274,
    "geonames": null,
    "letter_count": 0
  },
  {
    "id": "l108",
    "name": "Davos",
    "district": "Graubünden",
    "country": "Schweiz",
    "lat": 46.80429,
    "lon": 9.83723,
    "geonames": "https://www.geonames.org/2661039",
    "letter_count": 1
  },
  {
    "id": "l109",
    "name": "Tavate",
    "district": null,
    "country": null,
    "lat": null,
    "lon": null,
    "geonames": null,
    "letter_count": 0
  },
  {
    "id": "l110",
    "name": "Debrezin",
    "district": "Alföld és Észak",
    "country": "Ungarn",
    "lat": 47.531399,
    "lon": 21.6259782,
    "geonames": null,
    "letter_count": 1
  },
  {
    "id": "l111",
    "name": "Den Haag",
    "district": null,
    "country": null,
    "lat": null,
    "lon": null,
    "geonames": null,
    "letter_count": 0
  },
  {
    "id": "l113",
    "name": "Diessenhofen",
    "district": "Thurgau",
    "country": "Schweiz",
    "lat": 47.68908,
    "lon": 8.74958,
    "geonames": "https://www.geonames.org/2661016",
    "letter_count": 4
  },
  {
    "id": "l115",
    "name": "Dieuze",
    "district": "Metropolitanes Frankreich",
    "country": "Frankreich",
    "lat": 48.8104847,
    "lon": 6.7179948,
    "geonames": null,
    "letter_count": 0
  },
  {
    "id": "l118",
    "name": "Domleschg",
    "district": "Graubünden",
    "country": "Schweiz",
    "lat": 46.76908,
    "lon": 9.46468,
    "geonames": "https://www.geonames.org/11611713",
    "letter_count": 0
  },
  {
    "id": "l119",
    "name": "Donauwörth",
    "district": "Bayern",
    "country": "Deutschland",
    "lat": 48.71804,
    "lon": 10.7793,
    "geonames": "https://www.geonames.org/2936253",
    "letter_count": 1
  },
  {
    "id": "l120",
    "name": "Dover",
    "district": "Kent",
    "country": "England",
    "lat": 51.12598,
    "lon": 1.31257,
    "geonames": "https://www.geonames.org/2651048",
    "letter_count": 1
  },
  {
    "id": "l121",
    "name": "Dresden",
    "district": "Sachsen",
    "country": "Deutschland",
    "lat": 51.05089,
    "lon": 13.73832,
    "geonames": "https://www.geonames.org/2935022",
    "letter_count": 0
  },
  {
    "id": "l122",
    "name": "Dubiecko",
    "district": "Woiwodschaft Karpatenvorland",
    "country": "Polen",
    "lat": 49.82608,
    "lon": 22.39117,
    "geonames": "https://www.geonames.org/772897",
    "letter_count": 1
  },
  {
    "id": "l123",
    "name": "Dubiecz",
    "district": "Lublin",
    "country": "Polen",
    "lat": 52.025,
    "lon": 22.8313889,
    "geonames": null,
    "letter_count": 1
  },
  {
    "id": "l124",
    "name": "Dublin",
    "district": null,
    "country": null,
    "lat": null,
    "lon": null,
    "geonames": null,
    "letter_count": 0
  },
  {
    "id": "l125",
    "name": "Duisburg",
    "district": "Nordrhein-Westfalen",
    "country": "Deutschland",
    "lat": 51.43247,
    "lon": 6.76516,
    "geonames": "https://www.geonames.org/2934691",
    "letter_count": 1
  },
  {
    "id": "l126",
    "name": "Durham",
    "district": null,
    "country": "England",
    "lat": 54.77676,
    "lon": -1.57566,
    "geonames": "https://www.geonames.org/2650628",
    "letter_count": 1
  },
  {
    "id": "l127",
    "name": "Dürnten",
    "district": "Zürich",
    "country": "Schweiz",
    "lat": 47.27856,
    "lon": 8.84156,
    "geonames": "https://www.geonames.org/2660965",
    "letter_count": 0
  },
  {
    "id": "l128",
    "name": "Düsseldorf",
    "district": "Nordrhein-Westfalen",
    "country": "Deutschland",
    "lat": 51.22172,
    "lon": 6.77616,
    "geonames": "https://www.geonames.org/2934246",
    "letter_count": 0
  },
  {
    "id": "l130",
    "name": "Edinburgh",
    "district": "Schottland",
    "country": "Grossbritannien",
    "lat": 55.95206,
    "lon": -3.19648,
    "geonames": "https://www.geonames.org/2650225",
    "letter_count": 0
  },
  {
    "id": "l131",
    "name": "Eglisau",
    "district": "Zürich",
    "country": "Schweiz",
    "lat": 47.57738,
    "lon": 8.52122,
    "geonames": "https://www.geonames.org/2660934",
    "letter_count": 2
  },
  {
    "id": "l132",
    "name": "Eibenschitz bei Brünn",
    "district": null,
    "country": "Tschechien",
    "lat": 49.548526,
    "lon": 16.856056,
    "geonames": null,
    "letter_count": 0
  },
  {
    "id": "l133",
    "name": "Eichstätt",
    "district": "Bayern",
    "country": "Deutschland",
    "lat": 48.88854,
    "lon": 11.19675,
    "geonames": "https://www.geonames.org/2932069",
    "letter_count": 1
  },
  {
    "id": "l134",
    "name": "Elgg",
    "district": "Zürich",
    "country": "Schweiz",
    "lat": 47.49715,
    "lon": 8.86523,
    "geonames": "https://www.geonames.org/2660920",
    "letter_count": 5
  },
  {
    "id": "l136",
    "name": "Ely",
    "district": "Cambridgeshire",
    "country": "England",
    "lat": 52.39964,
    "lon": 0.26196,
    "geonames": "https://www.geonames.org/2650023",
    "letter_count": 11
  },
  {
    "id": "l137",
    "name": "Embrach",
    "district": "Zürich",
    "country": "Schweiz",
    "lat": 47.50561,
    "lon": 8.59406,
    "geonames": "https://www.geonames.org/2660913",
    "letter_count": 1
  },
  {
    "id": "l138",
    "name": "Emden",
    "district": "Niedersachsen",
    "country": "Deutschland",
    "lat": 53.36745,
    "lon": 7.20778,
    "geonames": "https://www.geonames.org/2930596",
    "letter_count": 19
  },
  {
    "id": "l139",
    "name": "Entringen",
    "district": "Baden-Württemberg",
    "country": "Deutschland",
    "lat": 48.54957,
    "lon": 8.96441,
    "geonames": "https://www.geonames.org/11397288",
    "letter_count": 2
  },
  {
    "id": "l140",
    "name": "Eppingen",
    "district": "Baden-Württemberg",
    "country": "Deutschland",
    "lat": 49.13645,
    "lon": 8.91229,
    "geonames": null,
    "letter_count": 1
  },
  {
    "id": "l142",
    "name": "Erfurt",
    "district": "Thüringen",
    "country": "Deutschland",
    "lat": 50.9787,
    "lon": 11.03283,
    "geonames": "https://www.geonames.org/2929670",
    "letter_count": 3
  },
  {
    "id": "l144",
    "name": "Erlenbach",
    "district": "Zürich",
    "country": "Schweiz",
    "lat": 47.30298,
    "lon": 8.59743,
    "geonames": "https://www.geonames.org/2660872",
    "letter_count": 2
  },
  {
    "id": "l145",
    "name": "Esslingen",
    "district": "Baden-Württemberg",
    "country": "Deutschland",
    "lat": 48.73961,
    "lon": 9.30473,
    "geonames": "https://www.geonames.org/2928751",
    "letter_count": 1
  },
  {
    "id": "l146",
    "name": "Farnham Castle",
    "district": null,
    "country": null,
    "lat": 51.21877,
    "lon": -0.80263,
    "geonames": null,
    "letter_count": 2
  },
  {
    "id": "l147",
    "name": "Fehraltorf",
    "district": "Zürich",
    "country": "Schweiz",
    "lat": 47.38775,
    "lon": 8.75149,
    "geonames": "https://www.geonames.org/2660812",
    "letter_count": 1
  },
  {
    "id": "l150",
    "name": "Ferrara",
    "district": "Emilia-Romagna",
    "country": "Italien",
    "lat": 44.83804,
    "lon": 11.62057,
    "geonames": "https://www.geonames.org/3177090",
    "letter_count": 4
  },
  {
    "id": "l151",
    "name": "Fideris",
    "district": "Graubünden",
    "country": "Schweiz",
    "lat": 46.91627,
    "lon": 9.74145,
    "geonames": "https://www.geonames.org/2660783",
    "letter_count": 2
  },
  {
    "id": "l152",
    "name": "Fischingen",
    "district": "Thurgau",
    "country": "Schweiz",
    "lat": 47.41422,
    "lon": 8.96862,
    "geonames": "https://www.geonames.org/2660766",
    "letter_count": 1
  },
  {
    "id": "l153",
    "name": "Forstegg",
    "district": "St. Gallen",
    "country": "Schweiz",
    "lat": 47.24978,
    "lon": 9.49768,
    "geonames": "https://www.geonames.org/11636496",
    "letter_count": 25
  },
  {
    "id": "l155",
    "name": "Franeker",
    "district": "Friesland",
    "country": "Niederlande",
    "lat": 53.18546,
    "lon": 5.54123,
    "geonames": "https://www.geonames.org/2755845",
    "letter_count": 0
  },
  {
    "id": "l156",
    "name": "Frankenthal",
    "district": "Rheinland-Pfalz",
    "country": "Deutschland",
    "lat": 49.53414,
    "lon": 8.35357,
    "geonames": null,
    "letter_count": 5
  },
  {
    "id": "l157",
    "name": "Frankfurt am Main",
    "district": "Hessen",
    "country": "Deutschland",
    "lat": 50.11552,
    "lon": 8.68417,
    "geonames": "https://www.geonames.org/2925533",
    "letter_count": 93
  },
  {
    "id": "l158",
    "name": "Frankfurt an der Oder",
    "district": "Brandenburg",
    "country": "Deutschland",
    "lat": 52.34714,
    "lon": 14.55062,
    "geonames": "https://www.geonames.org/2925535",
    "letter_count": 0
  },
  {
    "id": "l159",
    "name": "Frauenfeld",
    "district": "Thurgau",
    "country": "Schweiz",
    "lat": 47.55776,
    "lon": 8.89893,
    "geonames": "https://www.geonames.org/2660727",
    "letter_count": 17
  },
  {
    "id": "l160",
    "name": "Freiburg",
    "district": "Freiburg im Üechtland",
    "country": "Schweiz",
    "lat": 46.80237,
    "lon": 7.15128,
    "geonames": "https://www.geonames.org/2660718",
    "letter_count": 6
  },
  {
    "id": "l161",
    "name": "Friedberg",
    "district": "Bayern",
    "country": "Deutschland",
    "lat": 48.35693,
    "lon": 10.98461,
    "geonames": "https://www.geonames.org/2924803",
    "letter_count": 1
  },
  {
    "id": "l162",
    "name": "Friedewald",
    "district": "Rheinland-Pfalz",
    "country": "Deutschland",
    "lat": 50.71106,
    "lon": 7.9604,
    "geonames": "https://www.geonames.org/2924704",
    "letter_count": 1
  },
  {
    "id": "l164",
    "name": "Fulham",
    "district": null,
    "country": "England",
    "lat": 51.48026,
    "lon": -0.1993,
    "geonames": "https://www.geonames.org/2648997",
    "letter_count": 2
  },
  {
    "id": "l165",
    "name": "Füssen",
    "district": "Bayern",
    "country": "Deutschland",
    "lat": 47.57143,
    "lon": 10.70171,
    "geonames": "https://www.geonames.org/2923507",
    "letter_count": 3
  },
  {
    "id": "l166",
    "name": "Gachnang",
    "district": "Thurgau",
    "country": "Schweiz",
    "lat": 47.53935,
    "lon": 8.85311,
    "geonames": "https://www.geonames.org/2660688",
    "letter_count": 5
  },
  {
    "id": "l167",
    "name": "Genf",
    "district": "Genf",
    "country": "Schweiz",
    "lat": 46.20222,
    "lon": 6.14569,
    "geonames": "https://www.geonames.org/2660646",
    "letter_count": 449
  },
  {
    "id": "l168",
    "name": "Gent",
    "district": "Flandern",
    "country": "Belgien",
    "lat": 51.05,
    "lon": 3.71667,
    "geonames": "https://www.geonames.org/2797656",
    "letter_count": 0
  },
  {
    "id": "l169",
    "name": "Germersheim",
    "district": "Rheinland-Pfalz",
    "country": "Deutschland",
    "lat": 49.2093,
    "lon": 8.359,
    "geonames": "https://www.geonames.org/6557915",
    "letter_count": 1
  },
  {
    "id": "l170",
    "name": "Gerzensee",
    "district": "Bern",
    "country": "Schweiz",
    "lat": 46.84023,
    "lon": 7.54503,
    "geonames": "https://www.geonames.org/2660628",
    "letter_count": 1
  },
  {
    "id": "l171",
    "name": "Giengen an der Brenz",
    "district": "Baden-Württemberg",
    "country": "Deutschland",
    "lat": 48.62219,
    "lon": 10.24312,
    "geonames": "https://www.geonames.org/2920620",
    "letter_count": 9
  },
  {
    "id": "l172",
    "name": "Gilford",
    "district": null,
    "country": null,
    "lat": 51.23536,
    "lon": -0.57427,
    "geonames": null,
    "letter_count": 1
  },
  {
    "id": "l173",
    "name": "Girenbad",
    "district": "Zürich",
    "country": "Schweiz",
    "lat": 47.45216,
    "lon": 8.8466,
    "geonames": "https://www.geonames.org/2660605",
    "letter_count": 6
  },
  {
    "id": "l176",
    "name": "Glarus",
    "district": "Glarus",
    "country": "Schweiz",
    "lat": 47.04057,
    "lon": 9.06804,
    "geonames": "https://www.geonames.org/2660594",
    "letter_count": 193
  },
  {
    "id": "l177",
    "name": "Gloucester",
    "district": "England",
    "country": "Grossbritannien",
    "lat": 51.86568,
    "lon": -2.2431,
    "geonames": "https://www.geonames.org/2648404",
    "letter_count": 3
  },
  {
    "id": "l180",
    "name": "Greenwich",
    "district": "Greater London",
    "country": "England",
    "lat": 51.47785,
    "lon": -0.01176,
    "geonames": "https://www.geonames.org/2647937",
    "letter_count": 1
  },
  {
    "id": "l184",
    "name": "Griesenberg",
    "district": "Thurgau",
    "country": "Schweiz",
    "lat": 47.56981,
    "lon": 9.01361,
    "geonames": "https://www.geonames.org/7669606",
    "letter_count": 59
  },
  {
    "id": "l185",
    "name": "Groningen",
    "district": "Groningen",
    "country": "Niederlande",
    "lat": 53.21917,
    "lon": 6.56667,
    "geonames": "https://www.geonames.org/2755251",
    "letter_count": 5
  },
  {
    "id": "l186",
    "name": "Grönenbach",
    "district": "Bayern",
    "country": "Deutschland",
    "lat": 47.87714,
    "lon": 10.22207,
    "geonames": "https://www.geonames.org/2917126",
    "letter_count": 16
  },
  {
    "id": "l187",
    "name": "Grüningen",
    "district": "Zürich",
    "country": "Schweiz",
    "lat": 47.28144,
    "lon": 8.75919,
    "geonames": "https://www.geonames.org/6292272",
    "letter_count": 1
  },
  {
    "id": "l188",
    "name": "Guildford",
    "district": "Surrey",
    "country": "England",
    "lat": 51.23536,
    "lon": -0.57427,
    "geonames": null,
    "letter_count": 1
  },
  {
    "id": "l189",
    "name": "Gundelfingen (Breisgau)",
    "district": "Baden-Württemberg",
    "country": "Deutschland",
    "lat": 48.04246,
    "lon": 7.8657,
    "geonames": "https://www.geonames.org/2913713",
    "letter_count": 4
  },
  {
    "id": "l190",
    "name": "Gundelfingen an der Donau",
    "district": "Bayern",
    "country": "Deutschland",
    "lat": 48.55095,
    "lon": 10.36885,
    "geonames": "https://www.geonames.org/6559032",
    "letter_count": 1
  },
  {
    "id": "l191",
    "name": "Gunzenhausen",
    "district": "Bayern",
    "country": "Deutschland",
    "lat": 49.11663,
    "lon": 10.75971,
    "geonames": "https://www.geonames.org/2913537",
    "letter_count": 1
  },
  {
    "id": "l193",
    "name": "Girsberg",
    "district": "Zürich",
    "country": "Schweiz",
    "lat": 47.64206,
    "lon": 8.76875,
    "geonames": "https://www.geonames.org/6291016",
    "letter_count": 6
  },
  {
    "id": "l194",
    "name": "Gyula",
    "district": "Alföld és Észak",
    "country": "Ungarn",
    "lat": 46.65,
    "lon": 21.28333,
    "geonames": null,
    "letter_count": 1
  },
  {
    "id": "l195",
    "name": "Göppingen",
    "district": "Baden-Württemberg",
    "country": "Deutschland",
    "lat": 48.70354,
    "lon": 9.65209,
    "geonames": "https://www.geonames.org/2919054",
    "letter_count": 6
  },
  {
    "id": "l196",
    "name": "Görlitz",
    "district": "Sachsen",
    "country": "Deutschland",
    "lat": 51.15518,
    "lon": 14.98853,
    "geonames": "https://www.geonames.org/2918987",
    "letter_count": 1
  },
  {
    "id": "l198",
    "name": "Güttingen",
    "district": "Baden-Württemberg",
    "country": "Deutschland",
    "lat": 47.60349,
    "lon": 9.28742,
    "geonames": null,
    "letter_count": 1
  },
  {
    "id": "l199",
    "name": "Haguenau (Hagenau)",
    "district": "Grand Est",
    "country": "Frankreich",
    "lat": 48.81557,
    "lon": 7.79051,
    "geonames": "https://www.geonames.org/3014078",
    "letter_count": 1
  },
  {
    "id": "l200",
    "name": "Haldenstein",
    "district": "Graubünden",
    "country": "Schweiz",
    "lat": 46.87867,
    "lon": 9.52618,
    "geonames": "https://www.geonames.org/2660420",
    "letter_count": 9
  },
  {
    "id": "l202",
    "name": "Hall in Tirol",
    "district": "Tirol",
    "country": "Österreich",
    "lat": 47.28333,
    "lon": 11.51667,
    "geonames": "https://www.geonames.org/2764958",
    "letter_count": 1
  },
  {
    "id": "l203",
    "name": "Hallwil",
    "district": "Aargau",
    "country": "Schweiz",
    "lat": 47.32779,
    "lon": 8.17612,
    "geonames": "https://www.geonames.org/2659463",
    "letter_count": 3
  },
  {
    "id": "l204",
    "name": "Hamburg",
    "district": "Hamburg",
    "country": "Deutschland",
    "lat": 53.55073,
    "lon": 9.99302,
    "geonames": "https://www.geonames.org/2911298",
    "letter_count": 3
  },
  {
    "id": "l205",
    "name": "Hannover",
    "district": "Niedersachsen",
    "country": "Deutschland",
    "lat": 52.37052,
    "lon": 9.73322,
    "geonames": "https://www.geonames.org/2910831",
    "letter_count": 0
  },
  {
    "id": "l206",
    "name": "Handschuhsheim",
    "district": "Baden-Württemberg",
    "country": "Deutschland",
    "lat": 49.42705,
    "lon": 8.68468,
    "geonames": null,
    "letter_count": 3
  },
  {
    "id": "l207",
    "name": "Hausen am Albis",
    "district": "Zürich",
    "country": "Schweiz",
    "lat": 47.24496,
    "lon": 8.53299,
    "geonames": "https://www.geonames.org/2660400",
    "letter_count": 1
  },
  {
    "id": "l208",
    "name": "Hedelfingen",
    "district": "Baden-Württemberg",
    "country": "Deutschland",
    "lat": 48.75815,
    "lon": 9.25523,
    "geonames": "https://www.geonames.org/2908386",
    "letter_count": 5
  },
  {
    "id": "l209",
    "name": "Heideck",
    "district": "Bayern",
    "country": "Deutschland",
    "lat": 49.13365,
    "lon": 11.12726,
    "geonames": null,
    "letter_count": 3
  },
  {
    "id": "l210",
    "name": "Heidelberg",
    "district": "Baden-Württemberg",
    "country": "Deutschland",
    "lat": 49.40768,
    "lon": 8.69079,
    "geonames": "https://www.geonames.org/2907911",
    "letter_count": 245
  },
  {
    "id": "l211",
    "name": "Heiningen",
    "district": "Baden-Württemberg",
    "country": "Deutschland",
    "lat": 48.66177,
    "lon": 9.64977,
    "geonames": "https://www.geonames.org/2907280",
    "letter_count": 2
  },
  {
    "id": "l212",
    "name": "Herisau",
    "district": "Appenzell Ausserrhoden",
    "country": "Schweiz",
    "lat": 47.38615,
    "lon": 9.27916,
    "geonames": "https://www.geonames.org/2660365",
    "letter_count": 1
  },
  {
    "id": "l213",
    "name": "l213",
    "district": "Hessen",
    "country": "Deutschland",
    "lat": 50.55,
    "lon": 9.0,
    "geonames": "https://www.geonames.org/2905330",
    "letter_count": 0
  },
  {
    "id": "l214",
    "name": "Hettingen",
    "district": "Baden-Württemberg",
    "country": "Deutschland",
    "lat": 48.21601,
    "lon": 9.23169,
    "geonames": "https://www.geonames.org/2905215",
    "letter_count": 1
  },
  {
    "id": "l215",
    "name": "Hinwil",
    "district": "Zürich",
    "country": "Schweiz",
    "lat": 47.29426,
    "lon": 8.84393,
    "geonames": "https://www.geonames.org/2660338",
    "letter_count": 0
  },
  {
    "id": "l216",
    "name": "Hirzel",
    "district": "Zürich",
    "country": "Schweiz",
    "lat": 47.21743,
    "lon": 8.60794,
    "geonames": "https://www.geonames.org/6292671",
    "letter_count": 0
  },
  {
    "id": "l217",
    "name": "Hohentwiel",
    "district": "Baden-Württemberg",
    "country": "Deutschland",
    "lat": 47.76471,
    "lon": 8.81902,
    "geonames": "https://www.geonames.org/7646414",
    "letter_count": 1
  },
  {
    "id": "l218",
    "name": "Holborn",
    "district": null,
    "country": null,
    "lat": 51.51758,
    "lon": -0.114515,
    "geonames": null,
    "letter_count": 2
  },
  {
    "id": "l219",
    "name": "Homberg",
    "district": "Rheinland-Pfalz",
    "country": "Deutschland",
    "lat": 50.64222,
    "lon": 8.10639,
    "geonames": "https://www.geonames.org/2899480",
    "letter_count": 1
  },
  {
    "id": "l221",
    "name": "Horburg",
    "district": "Bayern",
    "country": "Deutschland",
    "lat": 48.08106,
    "lon": 7.3938,
    "geonames": null,
    "letter_count": 1
  },
  {
    "id": "l222",
    "name": "Horgen",
    "district": "Zürich",
    "country": "Schweiz",
    "lat": 47.25983,
    "lon": 8.59778,
    "geonames": "https://www.geonames.org/2660305",
    "letter_count": 1
  },
  {
    "id": "l223",
    "name": "Horn",
    "district": "Noord-Holland",
    "country": "Niederlande",
    "lat": 48.663889,
    "lon": 15.657222,
    "geonames": null,
    "letter_count": 1
  },
  {
    "id": "l225",
    "name": "Hunawihr (Hunaweier)",
    "district": "Grand Est",
    "country": "Frankreich",
    "lat": 48.1804,
    "lon": 7.31149,
    "geonames": "https://www.geonames.org/3012984",
    "letter_count": 1
  },
  {
    "id": "l226",
    "name": "Hundwil",
    "district": "Appenzell Ausserrhoden",
    "country": "Schweiz",
    "lat": 47.36464,
    "lon": 9.31847,
    "geonames": "https://www.geonames.org/2660293",
    "letter_count": 2
  },
  {
    "id": "l228",
    "name": "Höchstädt an der Donau",
    "district": "Bayern",
    "country": "Deutschland",
    "lat": 48.61124,
    "lon": 10.56816,
    "geonames": "https://www.geonames.org/2903012",
    "letter_count": 1
  },
  {
    "id": "l229",
    "name": "Höngg",
    "district": "Zürich",
    "country": "Schweiz",
    "lat": 47.40313,
    "lon": 8.4971,
    "geonames": "https://www.geonames.org/2660306",
    "letter_count": 1
  },
  {
    "id": "l230",
    "name": "Imola",
    "district": "Emilia-Romagna",
    "country": "Italien",
    "lat": 44.3535145,
    "lon": 11.7141233,
    "geonames": null,
    "letter_count": 1
  },
  {
    "id": "l231",
    "name": "Ingolstadt",
    "district": "Bayern",
    "country": "Deutschland",
    "lat": 48.76508,
    "lon": 11.42372,
    "geonames": "https://www.geonames.org/2895992",
    "letter_count": 1
  },
  {
    "id": "l232",
    "name": "Innsbruck",
    "district": "Tirol",
    "country": "Österreich",
    "lat": 47.26266,
    "lon": 11.39454,
    "geonames": "https://www.geonames.org/2775220",
    "letter_count": 3
  },
  {
    "id": "l234",
    "name": "Isny",
    "district": "Baden-Württemberg",
    "country": "Deutschland",
    "lat": 47.6926,
    "lon": 10.03857,
    "geonames": "https://www.geonames.org/2895638",
    "letter_count": 7
  },
  {
    "id": "l236",
    "name": "Ivanowicz",
    "district": null,
    "country": null,
    "lat": 50.22554,
    "lon": 19.961325,
    "geonames": null,
    "letter_count": 1
  },
  {
    "id": "l237",
    "name": "Iwanowicze",
    "district": null,
    "country": null,
    "lat": 50.22554,
    "lon": 19.961325,
    "geonames": null,
    "letter_count": 3
  },
  {
    "id": "l238",
    "name": "Jenins",
    "district": null,
    "country": null,
    "lat": 47.00149,
    "lon": 9.55657,
    "geonames": null,
    "letter_count": 1
  },
  {
    "id": "l239",
    "name": "Jonschwil",
    "district": "St. Gallen",
    "country": "Schweiz",
    "lat": 47.42402,
    "lon": 9.08689,
    "geonames": "https://www.geonames.org/2660219",
    "letter_count": 0
  },
  {
    "id": "l240",
    "name": "Justingen",
    "district": "Baden-Württemberg",
    "country": "Deutschland",
    "lat": 48.38724,
    "lon": 9.66389,
    "geonames": "https://www.geonames.org/2894399",
    "letter_count": 1
  },
  {
    "id": "l242",
    "name": "Kappel am Albis",
    "district": "Zürich",
    "country": "Schweiz",
    "lat": 47.22523,
    "lon": 8.51104,
    "geonames": "https://www.geonames.org/7286180",
    "letter_count": 50
  },
  {
    "id": "l243",
    "name": "Kappel",
    "district": "St. Gallen",
    "country": "Schweiz",
    "lat": 47.26891,
    "lon": 9.11622,
    "geonames": "https://www.geonames.org/2660188",
    "letter_count": 1
  },
  {
    "id": "l244",
    "name": "Kassel",
    "district": "Hessen",
    "country": "Deutschland",
    "lat": 51.31667,
    "lon": 9.5,
    "geonames": "https://www.geonames.org/2892518",
    "letter_count": 18
  },
  {
    "id": "l245",
    "name": "Kaufbeuren",
    "district": "Bayern",
    "country": "Deutschland",
    "lat": 47.88238,
    "lon": 10.62192,
    "geonames": "https://www.geonames.org/2892080",
    "letter_count": 17
  },
  {
    "id": "l246",
    "name": "Kehrenbach",
    "district": "Hessen",
    "country": "Deutschland",
    "lat": 51.16284,
    "lon": 9.61415,
    "geonames": "https://www.geonames.org/2891913",
    "letter_count": 1
  },
  {
    "id": "l247",
    "name": "Kempten",
    "district": "Zürich",
    "country": "Schweiz",
    "lat": 47.33204,
    "lon": 8.80471,
    "geonames": "https://www.geonames.org/11963226",
    "letter_count": 2
  },
  {
    "id": "l248",
    "name": "Kilchberg",
    "district": "Zürich",
    "country": "Schweiz",
    "lat": 47.32438,
    "lon": 8.54548,
    "geonames": "https://www.geonames.org/2660161",
    "letter_count": 0
  },
  {
    "id": "l249",
    "name": "Kirchberg",
    "district": "Metropolitanes Frankreich",
    "country": "Frankreich",
    "lat": 47.411353,
    "lon": 9.040182,
    "geonames": null,
    "letter_count": 1
  },
  {
    "id": "l250",
    "name": "Kleck",
    "district": "Минская область",
    "country": "Weißrussland",
    "lat": 53.067745,
    "lon": 26.63884,
    "geonames": null,
    "letter_count": 1
  },
  {
    "id": "l251",
    "name": "Klettgau",
    "district": "Baden-Württemberg",
    "country": "Deutschland",
    "lat": 47.655311,
    "lon": 8.425006,
    "geonames": null,
    "letter_count": 0
  },
  {
    "id": "l252",
    "name": "Kloten",
    "district": "Zürich",
    "country": "Schweiz",
    "lat": 47.45152,
    "lon": 8.58491,
    "geonames": "https://www.geonames.org/2660127",
    "letter_count": 0
  },
  {
    "id": "l253",
    "name": "Rohr [bei Kloten]",
    "district": "Zürich",
    "country": "Schweiz",
    "lat": 47.43721,
    "lon": 8.56642,
    "geonames": "https://www.geonames.org/6291336",
    "letter_count": 1
  },
  {
    "id": "l256",
    "name": "Kolding",
    "district": "Region Syddanmark",
    "country": "Dänemark",
    "lat": 55.495973,
    "lon": 9.473042,
    "geonames": null,
    "letter_count": 0
  },
  {
    "id": "l257",
    "name": "Konstanz",
    "district": "Baden-Württemberg",
    "country": "Deutschland",
    "lat": 47.66033,
    "lon": 9.17582,
    "geonames": "https://www.geonames.org/2885679",
    "letter_count": 464
  },
  {
    "id": "l258",
    "name": "Kopenhagen",
    "district": "Hauptstadtregion",
    "country": "Dänemark",
    "lat": 55.67594,
    "lon": 12.56553,
    "geonames": "https://www.geonames.org/2618425",
    "letter_count": 0
  },
  {
    "id": "l260",
    "name": "Krakau",
    "district": "Woiwodschaft Kleinpolen",
    "country": "Polen",
    "lat": 50.06143,
    "lon": 19.93658,
    "geonames": "https://www.geonames.org/3094802",
    "letter_count": 58
  },
  {
    "id": "l261",
    "name": "Kronstadt",
    "district": "Brașov",
    "country": "Rumänien",
    "lat": 45.64861,
    "lon": 25.60613,
    "geonames": "https://www.geonames.org/683844",
    "letter_count": 1
  },
  {
    "id": "l262",
    "name": "Krumau",
    "district": "Jihozápad",
    "country": "Tschechien",
    "lat": 48.81091,
    "lon": 14.31521,
    "geonames": null,
    "letter_count": 2
  },
  {
    "id": "l264",
    "name": "Krummenau",
    "district": "Rheinland-Pfalz",
    "country": "Deutschland",
    "lat": 47.226265,
    "lon": 9.198864,
    "geonames": null,
    "letter_count": 1
  },
  {
    "id": "l265",
    "name": "Kienzheim",
    "district": "Grand Est",
    "country": "Frankreich",
    "lat": 48.13596,
    "lon": 7.28608,
    "geonames": "https://www.geonames.org/3011463",
    "letter_count": 1
  },
  {
    "id": "l266",
    "name": "Kyburg",
    "district": "Zürich",
    "country": "Schweiz",
    "lat": 47.45569,
    "lon": 8.74476,
    "geonames": "https://www.geonames.org/2660084",
    "letter_count": 9
  },
  {
    "id": "l267",
    "name": "Köln",
    "district": "Nordrhein-Westfalen",
    "country": "Deutschland",
    "lat": 50.93333,
    "lon": 6.95,
    "geonames": "https://www.geonames.org/2886242",
    "letter_count": 44
  },
  {
    "id": "l268",
    "name": "Königsberg (Kaliningrad)",
    "district": "Oblast Kaliningrad",
    "country": "Russland",
    "lat": 54.70649,
    "lon": 20.51095,
    "geonames": "https://www.geonames.org/554234",
    "letter_count": 7
  },
  {
    "id": "l269",
    "name": "Königsfelden",
    "district": "Aargau",
    "country": "Schweiz",
    "lat": 47.48026,
    "lon": 8.21782,
    "geonames": "https://www.geonames.org/11054933",
    "letter_count": 13
  },
  {
    "id": "l270",
    "name": "Küsnacht",
    "district": "Zürich",
    "country": "Schweiz",
    "lat": 47.31805,
    "lon": 8.58401,
    "geonames": "https://www.geonames.org/2660089",
    "letter_count": 1
  },
  {
    "id": "l272",
    "name": "La Rochelle",
    "district": "Nouvelle-Aquitaine",
    "country": "Frankreich",
    "lat": 46.16308,
    "lon": -1.15222,
    "geonames": "https://www.geonames.org/3006787",
    "letter_count": 1
  },
  {
    "id": "l275",
    "name": "Lambeth",
    "district": "Greater London",
    "country": "England",
    "lat": 51.49635,
    "lon": -0.11152,
    "geonames": "https://www.geonames.org/6545250",
    "letter_count": 4
  },
  {
    "id": "l276",
    "name": "Landshut",
    "district": "Bayern",
    "country": "Deutschland",
    "lat": 48.52961,
    "lon": 12.16179,
    "geonames": "https://www.geonames.org/2881485",
    "letter_count": 3
  },
  {
    "id": "l277",
    "name": "Langenthal",
    "district": "Rheinland-Pfalz",
    "country": "Deutschland",
    "lat": 47.21526,
    "lon": 7.79607,
    "geonames": null,
    "letter_count": 1
  },
  {
    "id": "l278",
    "name": "Laufen",
    "district": "Bayern",
    "country": "Deutschland",
    "lat": 47.676164,
    "lon": 8.61476,
    "geonames": null,
    "letter_count": 5
  },
  {
    "id": "l279",
    "name": "Lauingen (Donau)",
    "district": "Bayern",
    "country": "Deutschland",
    "lat": 48.56775,
    "lon": 10.42706,
    "geonames": "https://www.geonames.org/2880099",
    "letter_count": 11
  },
  {
    "id": "l280",
    "name": "Lausanne",
    "district": "Waadt",
    "country": "Schweiz",
    "lat": 46.516,
    "lon": 6.63282,
    "geonames": "https://www.geonames.org/2659994",
    "letter_count": 91
  },
  {
    "id": "l281",
    "name": "Lavin",
    "district": "Engadin",
    "country": "Schweiz",
    "lat": 46.76726,
    "lon": 10.11062,
    "geonames": "https://www.geonames.org/2659985",
    "letter_count": 1
  },
  {
    "id": "l282",
    "name": "Leiden",
    "district": null,
    "country": "Niederlande",
    "lat": 52.15833,
    "lon": 4.49306,
    "geonames": "https://www.geonames.org/2751773",
    "letter_count": 0
  },
  {
    "id": "l283",
    "name": "Leeder",
    "district": "Bayern",
    "country": "Deutschland",
    "lat": 47.935075,
    "lon": 10.826853,
    "geonames": null,
    "letter_count": 1
  },
  {
    "id": "l284",
    "name": "Leipzig",
    "district": "Sachsen",
    "country": "Deutschland",
    "lat": 51.33962,
    "lon": 12.37129,
    "geonames": "https://www.geonames.org/2879139",
    "letter_count": 17
  },
  {
    "id": "l285",
    "name": "Lenzburg",
    "district": "Aargau",
    "country": "Schweiz",
    "lat": 47.38853,
    "lon": 8.17503,
    "geonames": "https://www.geonames.org/2659952",
    "letter_count": 43
  },
  {
    "id": "l287",
    "name": "Leutmerken",
    "district": "Thurgau",
    "country": "Schweiz",
    "lat": 47.56506,
    "lon": 9.03488,
    "geonames": "https://www.geonames.org/2659906",
    "letter_count": 26
  },
  {
    "id": "l288",
    "name": "Lichtenberg",
    "district": "Metropolitanes Frankreich",
    "country": "Frankreich",
    "lat": 49.771224,
    "lon": 8.804522,
    "geonames": null,
    "letter_count": 1
  },
  {
    "id": "l289",
    "name": "Lichtensteig",
    "district": "St. Gallen",
    "country": "Schweiz",
    "lat": 47.32381,
    "lon": 9.08758,
    "geonames": "https://www.geonames.org/2659898",
    "letter_count": 2
  },
  {
    "id": "l290",
    "name": "Ligerz",
    "district": "Bern",
    "country": "Schweiz",
    "lat": 47.08368,
    "lon": 7.13476,
    "geonames": "https://www.geonames.org/2659890",
    "letter_count": 1
  },
  {
    "id": "l291",
    "name": "Lindau",
    "district": "Bayern",
    "country": "Deutschland",
    "lat": 47.54612,
    "lon": 9.68431,
    "geonames": "https://www.geonames.org/2877550",
    "letter_count": 7
  },
  {
    "id": "l292",
    "name": "Litopolis",
    "district": null,
    "country": null,
    "lat": 48.404086,
    "lon": 15.58563,
    "geonames": null,
    "letter_count": 1
  },
  {
    "id": "l294",
    "name": "Locarno",
    "district": "Tessin",
    "country": "Schweiz",
    "lat": 46.17086,
    "lon": 8.79953,
    "geonames": "https://www.geonames.org/2659869",
    "letter_count": 10
  },
  {
    "id": "l295",
    "name": "Lohrbach",
    "district": "Baden-Württemberg",
    "country": "Deutschland",
    "lat": 49.40035,
    "lon": 9.13784,
    "geonames": "https://www.geonames.org/2876141",
    "letter_count": 1
  },
  {
    "id": "l296",
    "name": "London",
    "district": "Greater London",
    "country": "England",
    "lat": 51.50853,
    "lon": -0.12574,
    "geonames": "https://www.geonames.org/2643743",
    "letter_count": 107
  },
  {
    "id": "l298",
    "name": "Lublin",
    "district": "Lublin",
    "country": "Polen",
    "lat": 51.25,
    "lon": 22.56667,
    "geonames": null,
    "letter_count": 1
  },
  {
    "id": "l299",
    "name": "Ludham",
    "district": "England",
    "country": "Grossbritannien",
    "lat": 52.70991,
    "lon": 1.53603,
    "geonames": "https://www.geonames.org/2643426",
    "letter_count": 20
  },
  {
    "id": "l300",
    "name": "Luzern",
    "district": "Luzern",
    "country": "Schweiz",
    "lat": 47.05048,
    "lon": 8.30635,
    "geonames": "https://www.geonames.org/2659811",
    "letter_count": 3
  },
  {
    "id": "l301",
    "name": "Lyon",
    "district": "Auvergne-Rhône-Alpes",
    "country": "Frankreich",
    "lat": 45.74846,
    "lon": 4.84671,
    "geonames": "https://www.geonames.org/2996944",
    "letter_count": 18
  },
  {
    "id": "l302",
    "name": "Lübeck",
    "district": "Schleswig-Holstein",
    "country": "Deutschland",
    "lat": 53.86893,
    "lon": 10.68729,
    "geonames": "https://www.geonames.org/2875601",
    "letter_count": 1
  },
  {
    "id": "l303",
    "name": "Magdeburg",
    "district": "Sachsen-Anhalt",
    "country": "Deutschland",
    "lat": 52.12773,
    "lon": 11.62916,
    "geonames": "https://www.geonames.org/2874545",
    "letter_count": 1
  },
  {
    "id": "l304",
    "name": "Maggiatal",
    "district": null,
    "country": null,
    "lat": null,
    "lon": null,
    "geonames": null,
    "letter_count": 1
  },
  {
    "id": "l305",
    "name": "Maienfeld",
    "district": "Graubünden",
    "country": "Schweiz",
    "lat": 47.00472,
    "lon": 9.53115,
    "geonames": "https://www.geonames.org/2659787",
    "letter_count": 4
  },
  {
    "id": "l306",
    "name": "Mailand",
    "district": "Lombardei",
    "country": "Italien",
    "lat": 45.46427,
    "lon": 9.18951,
    "geonames": "https://www.geonames.org/3173435",
    "letter_count": 2
  },
  {
    "id": "l307",
    "name": "Mainz",
    "district": "Rheinland-Pfalz",
    "country": "Deutschland",
    "lat": 49.98419,
    "lon": 8.2791,
    "geonames": "https://www.geonames.org/2874225",
    "letter_count": 2
  },
  {
    "id": "l308",
    "name": "Malans",
    "district": "Graubünden",
    "country": "Schweiz",
    "lat": 46.98096,
    "lon": 9.57527,
    "geonames": "https://www.geonames.org/2659784",
    "letter_count": 3
  },
  {
    "id": "l309",
    "name": "Manslacht",
    "district": null,
    "country": null,
    "lat": 53.457253,
    "lon": 7.062407,
    "geonames": null,
    "letter_count": 1
  },
  {
    "id": "l310",
    "name": "Marbach",
    "district": "St. Gallen",
    "country": "Schweiz",
    "lat": 47.39167,
    "lon": 9.5672,
    "geonames": "https://www.geonames.org/8505039",
    "letter_count": 2
  },
  {
    "id": "l311",
    "name": "Marburg",
    "district": "Hessen",
    "country": "Deutschland",
    "lat": 50.80904,
    "lon": 8.77069,
    "geonames": "https://www.geonames.org/2873759",
    "letter_count": 89
  },
  {
    "id": "l312",
    "name": "Martiliasi",
    "district": null,
    "country": null,
    "lat": null,
    "lon": null,
    "geonames": null,
    "letter_count": 1
  },
  {
    "id": "l313",
    "name": "Maschwanden",
    "district": "Zürich",
    "country": "Schweiz",
    "lat": 47.23431,
    "lon": 8.42709,
    "geonames": "https://www.geonames.org/2659742",
    "letter_count": 1
  },
  {
    "id": "l314",
    "name": "Maulbronn",
    "district": "Baden-Württemberg",
    "country": "Deutschland",
    "lat": 48.99958,
    "lon": 8.80337,
    "geonames": "https://www.geonames.org/2872777",
    "letter_count": 3
  },
  {
    "id": "l315",
    "name": "Maur",
    "district": "Zürich",
    "country": "Schweiz",
    "lat": 47.33996,
    "lon": 8.66778,
    "geonames": "https://www.geonames.org/2659720",
    "letter_count": 1
  },
  {
    "id": "l317",
    "name": "Meilen",
    "district": "Zürich",
    "country": "Schweiz",
    "lat": 47.27232,
    "lon": 8.64617,
    "geonames": "https://www.geonames.org/2659703",
    "letter_count": 1
  },
  {
    "id": "l318",
    "name": "Melschtin",
    "district": null,
    "country": null,
    "lat": 49.870888,
    "lon": 20.778359,
    "geonames": null,
    "letter_count": 1
  },
  {
    "id": "l319",
    "name": "Melsungen",
    "district": "Hessen",
    "country": "Deutschland",
    "lat": 51.13029,
    "lon": 9.55236,
    "geonames": null,
    "letter_count": 5
  },
  {
    "id": "l320",
    "name": "Memmingen",
    "district": "Bayern",
    "country": "Deutschland",
    "lat": 47.98372,
    "lon": 10.18527,
    "geonames": "https://www.geonames.org/2871992",
    "letter_count": 51
  },
  {
    "id": "l321",
    "name": "Mesericz",
    "district": null,
    "country": null,
    "lat": 52.444481,
    "lon": 15.5779,
    "geonames": null,
    "letter_count": 0
  },
  {
    "id": "l322",
    "name": "Metz",
    "district": "Grand Est",
    "country": "Frankreich",
    "lat": 49.11911,
    "lon": 6.17269,
    "geonames": "https://www.geonames.org/2994160",
    "letter_count": 1
  },
  {
    "id": "l323",
    "name": "Misox",
    "district": "Graubünden",
    "country": "Schweiz",
    "lat": 46.30117,
    "lon": 9.18835,
    "geonames": "https://www.geonames.org/2659675",
    "letter_count": 2
  },
  {
    "id": "l324",
    "name": "Mittelstetten",
    "district": "Bayern",
    "country": "Deutschland",
    "lat": 48.20468,
    "lon": 10.76511,
    "geonames": null,
    "letter_count": 1
  },
  {
    "id": "l325",
    "name": "Moers",
    "district": "Nordrhein-Westfalen",
    "country": "Deutschland",
    "lat": 51.45342,
    "lon": 6.6326,
    "geonames": null,
    "letter_count": 1
  },
  {
    "id": "l327",
    "name": "Montbéliard (Mömpelgard)",
    "district": "Bourgogne-Franche-Comté",
    "country": "Frankreich",
    "lat": 47.50957,
    "lon": 6.79823,
    "geonames": "https://www.geonames.org/2992938",
    "letter_count": 10
  },
  {
    "id": "l328",
    "name": "Montpellier",
    "district": "Occitanie",
    "country": "Frankreich",
    "lat": 43.61093,
    "lon": 3.87635,
    "geonames": "https://www.geonames.org/2992166",
    "letter_count": 1
  },
  {
    "id": "l329",
    "name": "Morbegno",
    "district": "Lombardei",
    "country": "Italien",
    "lat": 46.1372,
    "lon": 9.57415,
    "geonames": "https://www.geonames.org/3172617",
    "letter_count": 2
  },
  {
    "id": "l330",
    "name": "Morges",
    "district": "Waadt",
    "country": "Schweiz",
    "lat": 46.51127,
    "lon": 6.49854,
    "geonames": "https://www.geonames.org/2659587",
    "letter_count": 3
  },
  {
    "id": "l331",
    "name": "Mosbach",
    "district": "Baden-Württemberg",
    "country": "Deutschland",
    "lat": 49.35357,
    "lon": 9.15106,
    "geonames": null,
    "letter_count": 2
  },
  {
    "id": "l332",
    "name": "Mödingen",
    "district": "Bayern",
    "country": "Deutschland",
    "lat": 48.6428643,
    "lon": 10.4320763,
    "geonames": null,
    "letter_count": 1
  },
  {
    "id": "l335",
    "name": "Mulhouse (Mülhausen)",
    "district": "Grand Est",
    "country": "Frankreich",
    "lat": 47.75205,
    "lon": 7.32866,
    "geonames": "https://www.geonames.org/2991214",
    "letter_count": 16
  },
  {
    "id": "l336",
    "name": "München",
    "district": "Bayern",
    "country": "Deutschland",
    "lat": 48.13743,
    "lon": 11.57549,
    "geonames": "https://www.geonames.org/2867714",
    "letter_count": 2
  },
  {
    "id": "l337",
    "name": "Neuburg an der Donau",
    "district": "Bayern",
    "country": "Deutschland",
    "lat": 48.73218,
    "lon": 11.18709,
    "geonames": "https://www.geonames.org/2866070",
    "letter_count": 16
  },
  {
    "id": "l339",
    "name": "Neuenburg/Neuchâtel",
    "district": "Neuenburg",
    "country": "Schweiz",
    "lat": 46.99179,
    "lon": 6.931,
    "geonames": "https://www.geonames.org/2659496",
    "letter_count": 28
  },
  {
    "id": "l341",
    "name": "Neunforn",
    "district": "Thurgau",
    "country": "Schweiz",
    "lat": 47.60232,
    "lon": 8.77196,
    "geonames": "https://www.geonames.org/7286629",
    "letter_count": 1
  },
  {
    "id": "l342",
    "name": "Oberneunforn",
    "district": "Thurgau",
    "country": "Schweiz",
    "lat": 47.60771,
    "lon": 8.77126,
    "geonames": "https://www.geonames.org/7669817",
    "letter_count": 2
  },
  {
    "id": "l348",
    "name": "Niederhone",
    "district": "Hessen",
    "country": "Deutschland",
    "lat": 51.1993008,
    "lon": 10.0077392,
    "geonames": null,
    "letter_count": 3
  },
  {
    "id": "l349",
    "name": "Niederurnen",
    "district": "Glarus",
    "country": "Schweiz",
    "lat": 47.12598,
    "lon": 9.05428,
    "geonames": "https://www.geonames.org/2659451",
    "letter_count": 1
  },
  {
    "id": "l350",
    "name": "Niederweningen",
    "district": "Zürich",
    "country": "Schweiz",
    "lat": 47.50614,
    "lon": 8.37711,
    "geonames": "https://www.geonames.org/2659448",
    "letter_count": 1
  },
  {
    "id": "l351",
    "name": "Norden",
    "district": "Niedersachsen",
    "country": "Deutschland",
    "lat": 53.59472,
    "lon": 7.20222,
    "geonames": null,
    "letter_count": 11
  },
  {
    "id": "l352",
    "name": "Norwich",
    "district": "England",
    "country": "Grossbritannien",
    "lat": 52.62783,
    "lon": 1.29834,
    "geonames": "https://www.geonames.org/2641181",
    "letter_count": 1
  },
  {
    "id": "l355",
    "name": "Nozereth",
    "district": null,
    "country": null,
    "lat": 46.775187,
    "lon": 6.038639,
    "geonames": null,
    "letter_count": 4
  },
  {
    "id": "l356",
    "name": "Nozeroy",
    "district": "Bourgogne-Franche-Comté",
    "country": "Frankreich",
    "lat": 46.77457,
    "lon": 6.03636,
    "geonames": "https://www.geonames.org/2989871",
    "letter_count": 7
  },
  {
    "id": "l357",
    "name": "Nyon",
    "district": "Waadt",
    "country": "Schweiz",
    "lat": 46.38318,
    "lon": 6.23955,
    "geonames": "https://www.geonames.org/2659422",
    "letter_count": 1
  },
  {
    "id": "l358",
    "name": "Nîmes",
    "district": "Occitanie",
    "country": "Frankreich",
    "lat": 43.83665,
    "lon": 4.35788,
    "geonames": "https://www.geonames.org/2990363",
    "letter_count": 2
  },
  {
    "id": "l359",
    "name": "Nimes",
    "district": "Metropolitanes Frankreich",
    "country": "Frankreich",
    "lat": 43.83378,
    "lon": 4.35962,
    "geonames": null,
    "letter_count": 0
  },
  {
    "id": "l360",
    "name": "Nördlingen",
    "district": "Bayern",
    "country": "Deutschland",
    "lat": 48.85122,
    "lon": 10.48868,
    "geonames": "https://www.geonames.org/2861914",
    "letter_count": 0
  },
  {
    "id": "l361",
    "name": "Nürnberg",
    "district": "Bayern",
    "country": "Deutschland",
    "lat": 49.45421,
    "lon": 11.07752,
    "geonames": "https://www.geonames.org/2861650",
    "letter_count": 86
  },
  {
    "id": "l362",
    "name": "Oberglatt",
    "district": "Zürich",
    "country": "Schweiz",
    "lat": 47.47576,
    "lon": 8.51896,
    "geonames": "https://www.geonames.org/2659385",
    "letter_count": 1
  },
  {
    "id": "l363",
    "name": "Oberlausitz",
    "district": "Sachsen",
    "country": "Deutschland",
    "lat": 51.16667,
    "lon": 14.33333,
    "geonames": "https://www.geonames.org/2859951",
    "letter_count": 1
  },
  {
    "id": "l364",
    "name": "Oldersum",
    "district": "Niedersachsen",
    "country": "Deutschland",
    "lat": 53.32767,
    "lon": 7.3436,
    "geonames": "https://www.geonames.org/2857402",
    "letter_count": 5
  },
  {
    "id": "l365",
    "name": "Oransko",
    "district": null,
    "country": null,
    "lat": 51.313314,
    "lon": 20.990364,
    "geonames": null,
    "letter_count": 1
  },
  {
    "id": "l366",
    "name": "Orbe",
    "district": "Waadt",
    "country": "Schweiz",
    "lat": 46.72504,
    "lon": 6.53069,
    "geonames": "https://www.geonames.org/2659289",
    "letter_count": 1
  },
  {
    "id": "l367",
    "name": "Orléans",
    "district": "Centre-Val de Loire",
    "country": "Frankreich",
    "lat": 47.90289,
    "lon": 1.90389,
    "geonames": "https://www.geonames.org/2989317",
    "letter_count": 2
  },
  {
    "id": "l369",
    "name": "Osnabrück",
    "district": "Niedersachsen",
    "country": "Deutschland",
    "lat": 52.2719595,
    "lon": 8.047635,
    "geonames": null,
    "letter_count": 1
  },
  {
    "id": "l370",
    "name": "Osseko",
    "district": null,
    "country": null,
    "lat": 49.636031,
    "lon": 21.486997,
    "geonames": null,
    "letter_count": 1
  },
  {
    "id": "l371",
    "name": "Osweczin",
    "district": null,
    "country": null,
    "lat": 50.030544,
    "lon": 19.19281,
    "geonames": null,
    "letter_count": 1
  },
  {
    "id": "l372",
    "name": "Oswiecim",
    "district": "Kleinpolen",
    "country": "Polen",
    "lat": 50.030544,
    "lon": 19.19281,
    "geonames": null,
    "letter_count": 2
  },
  {
    "id": "l373",
    "name": "Otelfingen",
    "district": "Zürich",
    "country": "Schweiz",
    "lat": 47.46053,
    "lon": 8.39141,
    "geonames": "https://www.geonames.org/2659269",
    "letter_count": 1
  },
  {
    "id": "l374",
    "name": "Othmarsingen",
    "district": "Aargau",
    "country": "Schweiz",
    "lat": 47.40125,
    "lon": 8.21383,
    "geonames": "https://www.geonames.org/2659267",
    "letter_count": 1
  },
  {
    "id": "l375",
    "name": "Ottenbach",
    "district": "Zürich",
    "country": "Schweiz",
    "lat": 47.28228,
    "lon": 8.40432,
    "geonames": "https://www.geonames.org/2659266",
    "letter_count": 23
  },
  {
    "id": "l376",
    "name": "Oxford",
    "district": "Oxforshire",
    "country": "England",
    "lat": 51.75222,
    "lon": -1.25596,
    "geonames": "https://www.geonames.org/2640729",
    "letter_count": 53
  },
  {
    "id": "l377",
    "name": "Padua",
    "district": "Venetien",
    "country": "Italien",
    "lat": 45.40797,
    "lon": 11.88586,
    "geonames": "https://www.geonames.org/3171728",
    "letter_count": 5
  },
  {
    "id": "l378",
    "name": "Paris",
    "district": "Île-de-France",
    "country": "Frankreich",
    "lat": 48.85341,
    "lon": 2.3488,
    "geonames": "https://www.geonames.org/2988507",
    "letter_count": 49
  },
  {
    "id": "l379",
    "name": "Payerne",
    "district": "Waadt",
    "country": "Schweiz",
    "lat": 46.82192,
    "lon": 6.93817,
    "geonames": "https://www.geonames.org/2659243",
    "letter_count": 3
  },
  {
    "id": "l380",
    "name": "Pelsnica",
    "district": null,
    "country": null,
    "lat": 50.290911,
    "lon": 20.303177,
    "geonames": null,
    "letter_count": 2
  },
  {
    "id": "l381",
    "name": "Pelsnicze",
    "district": null,
    "country": null,
    "lat": 50.290911,
    "lon": 20.303177,
    "geonames": null,
    "letter_count": 1
  },
  {
    "id": "l382",
    "name": "Petrikau",
    "district": null,
    "country": null,
    "lat": 51.40547,
    "lon": 19.70321,
    "geonames": null,
    "letter_count": 3
  },
  {
    "id": "l384",
    "name": "Pewsum",
    "district": "Niedersachsen",
    "country": "Deutschland",
    "lat": 53.43259,
    "lon": 7.09556,
    "geonames": "https://www.geonames.org/2854509",
    "letter_count": 0
  },
  {
    "id": "l386",
    "name": "Pforzheim",
    "district": "Baden-Württemberg",
    "country": "Deutschland",
    "lat": 48.88436,
    "lon": 8.69892,
    "geonames": "https://www.geonames.org/2853969",
    "letter_count": 0
  },
  {
    "id": "l387",
    "name": "Pfyn",
    "district": "Thurgau",
    "country": "Schweiz",
    "lat": 47.59693,
    "lon": 8.9542,
    "geonames": "https://www.geonames.org/2659211",
    "letter_count": 2
  },
  {
    "id": "l391",
    "name": "Plurs",
    "district": "Lombardei",
    "country": "Italien",
    "lat": 46.32979,
    "lon": 9.42064,
    "geonames": null,
    "letter_count": 1
  },
  {
    "id": "l392",
    "name": "Poissy",
    "district": "Metropolitanes Frankreich",
    "country": "Frankreich",
    "lat": 48.92902,
    "lon": 2.04952,
    "geonames": null,
    "letter_count": 1
  },
  {
    "id": "l393",
    "name": "Pontresina",
    "district": "Graubünden",
    "country": "Schweiz",
    "lat": 46.4955,
    "lon": 9.90126,
    "geonames": "https://www.geonames.org/2659172",
    "letter_count": 0
  },
  {
    "id": "l394",
    "name": "Poznan (Posen)",
    "district": "Woiwodschaft Großpolen",
    "country": "Polen",
    "lat": 52.40692,
    "lon": 16.92993,
    "geonames": "https://www.geonames.org/3088171",
    "letter_count": 0
  },
  {
    "id": "l395",
    "name": "Posonium",
    "district": "Pressburg (Bratislava)",
    "country": "Slowakei",
    "lat": 48.14816,
    "lon": 17.10674,
    "geonames": null,
    "letter_count": 1
  },
  {
    "id": "l396",
    "name": "Prag",
    "district": null,
    "country": "Tschechien",
    "lat": 50.08804,
    "lon": 14.42076,
    "geonames": "https://www.geonames.org/3067696",
    "letter_count": 0
  },
  {
    "id": "l397",
    "name": "Promontogno",
    "district": "Graubünden",
    "country": "Schweiz",
    "lat": 46.33939,
    "lon": 9.55759,
    "geonames": "https://www.geonames.org/2659133",
    "letter_count": 4
  },
  {
    "id": "l398",
    "name": "Przeslawicz",
    "district": null,
    "country": null,
    "lat": 53.373753,
    "lon": 14.472611,
    "geonames": null,
    "letter_count": 1
  },
  {
    "id": "l399",
    "name": "Puschlav",
    "district": "Graubünden",
    "country": "Schweiz",
    "lat": 46.32441,
    "lon": 10.05823,
    "geonames": "https://www.geonames.org/2659165",
    "letter_count": 2
  },
  {
    "id": "l400",
    "name": "Querceto",
    "district": "Toscana",
    "country": "Italien",
    "lat": 43.508019,
    "lon": 11.302415,
    "geonames": null,
    "letter_count": 1
  },
  {
    "id": "l401",
    "name": "Radziejow",
    "district": null,
    "country": null,
    "lat": 52.62669,
    "lon": 18.5257,
    "geonames": null,
    "letter_count": 1
  },
  {
    "id": "l402",
    "name": "Rafz",
    "district": "Zürich",
    "country": "Schweiz",
    "lat": 47.60438,
    "lon": 8.54305,
    "geonames": "https://www.geonames.org/2659113",
    "letter_count": 0
  },
  {
    "id": "l403",
    "name": "Ramsen",
    "district": "Rheinland-Pfalz",
    "country": "Deutschland",
    "lat": 49.5369,
    "lon": 8.01333,
    "geonames": "https://www.geonames.org/6554977",
    "letter_count": 0
  },
  {
    "id": "l404",
    "name": "Rappoltsweiler/Ribeauvillé (Rappoltstein)",
    "district": "Grand Est",
    "country": "Frankreich",
    "lat": 48.1951,
    "lon": 7.31938,
    "geonames": "https://www.geonames.org/2983705",
    "letter_count": 86
  },
  {
    "id": "l406",
    "name": "Rappoldsweiler",
    "district": "Baden-Württemberg",
    "country": "Deutschland",
    "lat": 49.2747947,
    "lon": 9.8087431,
    "geonames": null,
    "letter_count": 0
  },
  {
    "id": "l407",
    "name": "Rappoltweiler",
    "district": null,
    "country": null,
    "lat": null,
    "lon": null,
    "geonames": null,
    "letter_count": 0
  },
  {
    "id": "l408",
    "name": "Rauschenberg",
    "district": "Hessen",
    "country": "Deutschland",
    "lat": 50.88329,
    "lon": 8.91864,
    "geonames": null,
    "letter_count": 5
  },
  {
    "id": "l409",
    "name": "Ravensburg",
    "district": "Baden-Württemberg",
    "country": "Deutschland",
    "lat": 47.78198,
    "lon": 9.61062,
    "geonames": "https://www.geonames.org/2849802",
    "letter_count": 8
  },
  {
    "id": "l410",
    "name": "Regensburg",
    "district": "Bayern",
    "country": "Deutschland",
    "lat": 49.01513,
    "lon": 12.10161,
    "geonames": "https://www.geonames.org/2849483",
    "letter_count": 22
  },
  {
    "id": "l411",
    "name": "Riquewihr (Reichenweier)",
    "district": "Grand Est",
    "country": "Frankreich",
    "lat": 48.16672,
    "lon": 7.29707,
    "geonames": "https://www.geonames.org/2983451",
    "letter_count": 106
  },
  {
    "id": "l412",
    "name": "Reutlingen",
    "district": "Baden-Württemberg",
    "country": "Deutschland",
    "lat": 48.49144,
    "lon": 9.20427,
    "geonames": "https://www.geonames.org/2847736",
    "letter_count": 6
  },
  {
    "id": "l413",
    "name": "Rheinau",
    "district": "Baden-Württemberg",
    "country": "Deutschland",
    "lat": 47.63277,
    "lon": 8.60251,
    "geonames": null,
    "letter_count": 1
  },
  {
    "id": "l414",
    "name": "Rheineck",
    "district": "St. Gallen",
    "country": "Schweiz",
    "lat": 47.4663,
    "lon": 9.59028,
    "geonames": "https://www.geonames.org/2659062",
    "letter_count": 6
  },
  {
    "id": "l416",
    "name": "Richmond",
    "district": null,
    "country": null,
    "lat": 51.44269,
    "lon": -0.28371,
    "geonames": null,
    "letter_count": 1
  },
  {
    "id": "l417",
    "name": "Rickenbach",
    "district": "Baden-Württemberg",
    "country": "Deutschland",
    "lat": 47.552776,
    "lon": 8.796108,
    "geonames": null,
    "letter_count": 3
  },
  {
    "id": "l423",
    "name": "Rohrenfels",
    "district": "Bayern",
    "country": "Deutschland",
    "lat": 48.68654,
    "lon": 11.15619,
    "geonames": "https://www.geonames.org/2845625",
    "letter_count": 1
  },
  {
    "id": "l424",
    "name": "Rolle",
    "district": "Waadt",
    "country": "Schweiz",
    "lat": 46.4582,
    "lon": 6.33499,
    "geonames": "https://www.geonames.org/2658989",
    "letter_count": 2
  },
  {
    "id": "l425",
    "name": "Rom",
    "district": "Latium",
    "country": "Italien",
    "lat": 41.89193,
    "lon": 12.51133,
    "geonames": "https://www.geonames.org/3169070",
    "letter_count": 4
  },
  {
    "id": "l426",
    "name": "Romrath",
    "district": null,
    "country": null,
    "lat": 50.71476,
    "lon": 9.22089,
    "geonames": null,
    "letter_count": 1
  },
  {
    "id": "l427",
    "name": "Rostock",
    "district": "Mecklenburg-Vorpommern",
    "country": "Deutschland",
    "lat": 54.0887,
    "lon": 12.14049,
    "geonames": "https://www.geonames.org/2844588",
    "letter_count": 3
  },
  {
    "id": "l428",
    "name": "Roth",
    "district": "Bayern",
    "country": "Deutschland",
    "lat": 49.1952934,
    "lon": 11.056652343301323,
    "geonames": null,
    "letter_count": 1
  },
  {
    "id": "l429",
    "name": "Rothenstein",
    "district": "Thüringen",
    "country": "Deutschland",
    "lat": 47.866948,
    "lon": 10.203037,
    "geonames": null,
    "letter_count": 7
  },
  {
    "id": "l430",
    "name": "Rottenstein",
    "district": "Bayern",
    "country": "Deutschland",
    "lat": 50.17485,
    "lon": 10.50198,
    "geonames": "https://www.geonames.org/2843713",
    "letter_count": 0
  },
  {
    "id": "l431",
    "name": "Rottweil",
    "district": "Baden-Württemberg",
    "country": "Deutschland",
    "lat": 48.16783,
    "lon": 8.62719,
    "geonames": "https://www.geonames.org/2843636",
    "letter_count": 1
  },
  {
    "id": "l432",
    "name": "Ruremond",
    "district": null,
    "country": null,
    "lat": 51.191329,
    "lon": 5.987772,
    "geonames": null,
    "letter_count": 2
  },
  {
    "id": "l433",
    "name": "Russikon",
    "district": "Zürich",
    "country": "Schweiz",
    "lat": 47.39669,
    "lon": 8.77515,
    "geonames": "https://www.geonames.org/2658917",
    "letter_count": 1
  },
  {
    "id": "l434",
    "name": "Rötteln",
    "district": "Baden-Württemberg",
    "country": "Deutschland",
    "lat": 47.63817,
    "lon": 7.6681,
    "geonames": "https://www.geonames.org/12213982",
    "letter_count": 8
  },
  {
    "id": "l435",
    "name": "Rüti",
    "district": "Zürich",
    "country": "Schweiz",
    "lat": 47.25603,
    "lon": 8.85552,
    "geonames": "https://www.geonames.org/2658909",
    "letter_count": 3
  },
  {
    "id": "l436",
    "name": "Saanen",
    "district": "Bern",
    "country": "Schweiz",
    "lat": 46.47121,
    "lon": 7.27879,
    "geonames": "https://www.geonames.org/6458882",
    "letter_count": 1
  },
  {
    "id": "l439",
    "name": "Samaden",
    "district": "Lombardei",
    "country": "Italien",
    "lat": 46.53399,
    "lon": 9.87276,
    "geonames": null,
    "letter_count": 41
  },
  {
    "id": "l440",
    "name": "Samedan",
    "district": null,
    "country": "Schweiz",
    "lat": 46.53399,
    "lon": 9.87276,
    "geonames": "https://www.geonames.org/2658846",
    "letter_count": 0
  },
  {
    "id": "l441",
    "name": "Schaffhausen",
    "district": "Schaffhausen",
    "country": "Schweiz",
    "lat": 47.69732,
    "lon": 8.63493,
    "geonames": "https://www.geonames.org/2658761",
    "letter_count": 264
  },
  {
    "id": "l442",
    "name": "Schafis/Chavannes",
    "district": "Bern",
    "country": "Schweiz",
    "lat": 47.0817304,
    "lon": 7.1282894,
    "geonames": null,
    "letter_count": 1
  },
  {
    "id": "l443",
    "name": "Scharfenort",
    "district": null,
    "country": null,
    "lat": 52.626727,
    "lon": 16.451199,
    "geonames": null,
    "letter_count": 1
  },
  {
    "id": "l445",
    "name": "Scherzingen",
    "district": "Baden-Württemberg",
    "country": "Deutschland",
    "lat": 47.630467,
    "lon": 9.226138,
    "geonames": null,
    "letter_count": 1
  },
  {
    "id": "l446",
    "name": "Scherzligen",
    "district": "Bern",
    "country": "Schweiz",
    "lat": 46.74624,
    "lon": 7.63576,
    "geonames": "https://www.geonames.org/2658741",
    "letter_count": 1
  },
  {
    "id": "l447",
    "name": "Schlachteck",
    "district": null,
    "country": null,
    "lat": 48.551979,
    "lon": 10.372217,
    "geonames": null,
    "letter_count": 5
  },
  {
    "id": "l448",
    "name": "Schleiden",
    "district": "Nordrhein-Westfalen",
    "country": "Deutschland",
    "lat": 50.52896,
    "lon": 6.47692,
    "geonames": null,
    "letter_count": 1
  },
  {
    "id": "l449",
    "name": "l449",
    "district": "Schlesien",
    "country": "Polen",
    "lat": 50.33333,
    "lon": 18.93333,
    "geonames": "https://www.geonames.org/3337497",
    "letter_count": 1
  },
  {
    "id": "l451",
    "name": "Sélestat",
    "district": "Metropolitanes Frankreich",
    "country": "Frankreich",
    "lat": 48.2594396,
    "lon": 7.454217,
    "geonames": null,
    "letter_count": 0
  },
  {
    "id": "l452",
    "name": "Sélestat (Schlettstadt)",
    "district": "Grand Est, Sélestat-Erstein",
    "country": "Frankreich",
    "lat": 48.26195,
    "lon": 7.4489,
    "geonames": "https://www.geonames.org/2975233",
    "letter_count": 0
  },
  {
    "id": "l454",
    "name": "Schleusingen",
    "district": "Thüringen",
    "country": "Deutschland",
    "lat": 50.51076,
    "lon": 10.75658,
    "geonames": null,
    "letter_count": 2
  },
  {
    "id": "l455",
    "name": "Schopfheim",
    "district": "Baden-Württemberg",
    "country": "Deutschland",
    "lat": 47.65105,
    "lon": 7.82089,
    "geonames": "https://www.geonames.org/2836413",
    "letter_count": 3
  },
  {
    "id": "l456",
    "name": "Schramberg",
    "district": "Baden-Württemberg",
    "country": "Deutschland",
    "lat": 48.225478,
    "lon": 8.3852168,
    "geonames": null,
    "letter_count": 1
  },
  {
    "id": "l458",
    "name": "Schwanden",
    "district": "Glarus",
    "country": "Schweiz",
    "lat": 46.99541,
    "lon": 9.0701,
    "geonames": "https://www.geonames.org/2658684",
    "letter_count": 7
  },
  {
    "id": "l459",
    "name": "Secomini",
    "district": null,
    "country": null,
    "lat": 50.76504,
    "lon": 19.821038,
    "geonames": null,
    "letter_count": 1
  },
  {
    "id": "l461",
    "name": "Sendomir",
    "district": null,
    "country": null,
    "lat": 50.68224,
    "lon": 21.750178,
    "geonames": null,
    "letter_count": 1
  },
  {
    "id": "l462",
    "name": "Siena",
    "district": "Toskana",
    "country": "Italien",
    "lat": 43.31822,
    "lon": 11.33064,
    "geonames": "https://www.geonames.org/3166548",
    "letter_count": 2
  },
  {
    "id": "l463",
    "name": "Sils",
    "district": "Engadin",
    "country": "Schweiz",
    "lat": 46.42886,
    "lon": 9.76364,
    "geonames": "https://www.geonames.org/2658641",
    "letter_count": 1
  },
  {
    "id": "l465",
    "name": "Sittaw",
    "district": null,
    "country": null,
    "lat": 50.899968,
    "lon": 14.802997,
    "geonames": null,
    "letter_count": 1
  },
  {
    "id": "l466",
    "name": "Sitten",
    "district": "Wallis",
    "country": "Schweiz",
    "lat": 46.22739,
    "lon": 7.35559,
    "geonames": "https://www.geonames.org/2658576",
    "letter_count": 4
  },
  {
    "id": "l467",
    "name": "Soulangy",
    "district": null,
    "country": "Frankreich",
    "lat": 48.9424,
    "lon": -0.22,
    "geonames": "https://www.geonames.org/2974036",
    "letter_count": 1
  },
  {
    "id": "l468",
    "name": "l468",
    "district": "Solothurn",
    "country": "Schweiz",
    "lat": 47.21071,
    "lon": 7.52048,
    "geonames": "https://www.geonames.org/2658563",
    "letter_count": 161
  },
  {
    "id": "l469",
    "name": "Sondrio",
    "district": "Lombardei",
    "country": "Italien",
    "lat": 46.60947,
    "lon": 10.18106,
    "geonames": null,
    "letter_count": 2
  },
  {
    "id": "l470",
    "name": "Spangenberg",
    "district": "Hessen",
    "country": "Deutschland",
    "lat": 51.11644,
    "lon": 9.6627,
    "geonames": "https://www.geonames.org/2830829",
    "letter_count": 6
  },
  {
    "id": "l471",
    "name": "Speyer",
    "district": "Rheinland-Pfalz",
    "country": "Deutschland",
    "lat": 49.32083,
    "lon": 8.43111,
    "geonames": "https://www.geonames.org/2830582",
    "letter_count": 6
  },
  {
    "id": "l473",
    "name": "St. Gallen",
    "district": "St. Gallen",
    "country": "Schweiz",
    "lat": 47.42391,
    "lon": 9.37477,
    "geonames": "https://www.geonames.org/2658822",
    "letter_count": 400
  },
  {
    "id": "l477",
    "name": "Saint-Germain",
    "district": "Metropolitanes Frankreich",
    "country": "Frankreich",
    "lat": 48.898908,
    "lon": 2.093761,
    "geonames": null,
    "letter_count": 0
  },
  {
    "id": "l478",
    "name": "Saint-Germain-en-Laye",
    "district": "Île-de-France",
    "country": "Frankreich",
    "lat": 48.89643,
    "lon": 2.0904,
    "geonames": "https://www.geonames.org/2979783",
    "letter_count": 16
  },
  {
    "id": "l480",
    "name": "St. Margrethen",
    "district": "St. Gallen",
    "country": "Schweiz",
    "lat": 47.45253,
    "lon": 9.63741,
    "geonames": "https://www.geonames.org/2658816",
    "letter_count": 1
  },
  {
    "id": "l482",
    "name": "St. Peterzell",
    "district": "St. Gallen",
    "country": "Schweiz",
    "lat": 47.31782,
    "lon": 9.17599,
    "geonames": "https://www.geonames.org/2658807",
    "letter_count": 2
  },
  {
    "id": "l486",
    "name": "Stammheim",
    "district": "Baden-Württemberg",
    "country": "Deutschland",
    "lat": 47.63244,
    "lon": 8.79963,
    "geonames": null,
    "letter_count": 6
  },
  {
    "id": "l487",
    "name": "Steckborn",
    "district": "Thurgau",
    "country": "Schweiz",
    "lat": 47.66667,
    "lon": 8.98333,
    "geonames": "https://www.geonames.org/2658495",
    "letter_count": 3
  },
  {
    "id": "l488",
    "name": "Steeg",
    "district": "Tirol",
    "country": "Österreich",
    "lat": 50.06111,
    "lon": 7.76944,
    "geonames": null,
    "letter_count": 1
  },
  {
    "id": "l489",
    "name": "Stein am Rhein",
    "district": "Schaffhausen",
    "country": "Schweiz",
    "lat": 47.65933,
    "lon": 8.85964,
    "geonames": "https://www.geonames.org/2658489",
    "letter_count": 25
  },
  {
    "id": "l491",
    "name": "Straßburg",
    "district": "Grand Est",
    "country": "Frankreich",
    "lat": 48.58392,
    "lon": 7.74553,
    "geonames": "https://www.geonames.org/2973783",
    "letter_count": 371
  },
  {
    "id": "l495",
    "name": "Straubing",
    "district": "Bayern",
    "country": "Deutschland",
    "lat": 48.8819801,
    "lon": 12.569716,
    "geonames": null,
    "letter_count": 0
  },
  {
    "id": "l496",
    "name": "Stuttgart",
    "district": "Baden-Württemberg",
    "country": "Deutschland",
    "lat": 48.78232,
    "lon": 9.17702,
    "geonames": "https://www.geonames.org/2825297",
    "letter_count": 13
  },
  {
    "id": "l497",
    "name": "Suhr",
    "district": "Aargau",
    "country": "Schweiz",
    "lat": 47.37172,
    "lon": 8.07967,
    "geonames": "https://www.geonames.org/2658457",
    "letter_count": 3
  },
  {
    "id": "l499",
    "name": "Süs",
    "district": "Metropolitanes Frankreich",
    "country": "Frankreich",
    "lat": 46.74989,
    "lon": 10.07918,
    "geonames": null,
    "letter_count": 7
  },
  {
    "id": "l500",
    "name": "Tarnow",
    "district": "Kleinpolen",
    "country": "Polen",
    "lat": 50.01381,
    "lon": 20.98698,
    "geonames": null,
    "letter_count": 2
  },
  {
    "id": "l501",
    "name": "Tegerfelden",
    "district": "Aargau",
    "country": "Schweiz",
    "lat": 47.55809,
    "lon": 8.28914,
    "geonames": "https://www.geonames.org/2658410",
    "letter_count": 1
  },
  {
    "id": "l502",
    "name": "Thetford",
    "district": null,
    "country": null,
    "lat": 52.41667,
    "lon": 0.75,
    "geonames": null,
    "letter_count": 1
  },
  {
    "id": "l503",
    "name": "Thun",
    "district": "Bern",
    "country": "Schweiz",
    "lat": 46.75118,
    "lon": 7.62166,
    "geonames": "https://www.geonames.org/2658377",
    "letter_count": 1
  },
  {
    "id": "l505",
    "name": "Tirano",
    "district": "Lombardei",
    "country": "Italien",
    "lat": 46.21482,
    "lon": 10.16335,
    "geonames": "https://www.geonames.org/3165647",
    "letter_count": 5
  },
  {
    "id": "l507",
    "name": "Toggenburg",
    "district": "St. Gallen",
    "country": "Schweiz",
    "lat": 47.29453,
    "lon": 9.17283,
    "geonames": "https://www.geonames.org/7285001",
    "letter_count": 0
  },
  {
    "id": "l508",
    "name": "Tomice",
    "district": "Středočeský",
    "country": "Tschechien",
    "lat": 49.9006095,
    "lon": 19.4847417,
    "geonames": null,
    "letter_count": 1
  },
  {
    "id": "l509",
    "name": "Torgau",
    "district": "Sachsen",
    "country": "Deutschland",
    "lat": 51.56016,
    "lon": 12.99617,
    "geonames": "https://www.geonames.org/2821807",
    "letter_count": 1
  },
  {
    "id": "l510",
    "name": "Töss",
    "district": "Zürich",
    "country": "Schweiz",
    "lat": 47.4789,
    "lon": 8.70215,
    "geonames": "https://www.geonames.org/2658344",
    "letter_count": 2
  },
  {
    "id": "l512",
    "name": "Tübingen",
    "district": "Baden-Württemberg",
    "country": "Deutschland",
    "lat": 48.52266,
    "lon": 9.05222,
    "geonames": "https://www.geonames.org/2820860",
    "letter_count": 123
  },
  {
    "id": "l513",
    "name": "Ulm",
    "district": "Baden-Württemberg",
    "country": "Deutschland",
    "lat": 48.39841,
    "lon": 9.99155,
    "geonames": "https://www.geonames.org/2820256",
    "letter_count": 23
  },
  {
    "id": "l514",
    "name": "Urach",
    "district": "Baden-Württemberg",
    "country": "Deutschland",
    "lat": 48.49107,
    "lon": 9.40009,
    "geonames": "https://www.geonames.org/2818246",
    "letter_count": 4
  },
  {
    "id": "l515",
    "name": "Urdorf",
    "district": "Zürich",
    "country": "Schweiz",
    "lat": 47.38507,
    "lon": 8.42581,
    "geonames": "https://www.geonames.org/2659332",
    "letter_count": 7
  },
  {
    "id": "l517",
    "name": "Uster",
    "district": "Zürich",
    "country": "Schweiz",
    "lat": 47.34713,
    "lon": 8.72091,
    "geonames": "https://www.geonames.org/2658216",
    "letter_count": 23
  },
  {
    "id": "l518",
    "name": "Utrecht",
    "district": "Utrecht",
    "country": "Niederlande",
    "lat": 52.09083,
    "lon": 5.12222,
    "geonames": "https://www.geonames.org/2745912",
    "letter_count": 0
  },
  {
    "id": "l519",
    "name": "Veltheim",
    "district": "Zürich",
    "country": "Schweiz",
    "lat": 47.51419,
    "lon": 8.717,
    "geonames": "https://www.geonames.org/2658172",
    "letter_count": 1
  },
  {
    "id": "l520",
    "name": "Veltlin (Valtellina)",
    "district": "Lombardei",
    "country": "Italien",
    "lat": 46.18333,
    "lon": 9.91667,
    "geonames": "https://www.geonames.org/3164752",
    "letter_count": 0
  },
  {
    "id": "l522",
    "name": "Venedig",
    "district": "Venetien",
    "country": "Italien",
    "lat": 45.43713,
    "lon": 12.33265,
    "geonames": "https://www.geonames.org/3164603",
    "letter_count": 19
  },
  {
    "id": "l525",
    "name": "Vicosoprano",
    "district": "Bregaglia",
    "country": null,
    "lat": 46.35112,
    "lon": 9.6208,
    "geonames": "https://www.geonames.org/2658138",
    "letter_count": 44
  },
  {
    "id": "l527",
    "name": "Vézelay",
    "district": "Metropolitanes Frankreich",
    "country": "Frankreich",
    "lat": 47.46572,
    "lon": 3.74559,
    "geonames": null,
    "letter_count": 1
  },
  {
    "id": "l528",
    "name": "Wagegg",
    "district": "Bayern",
    "country": "Deutschland",
    "lat": 47.7639,
    "lon": 10.37954,
    "geonames": "https://www.geonames.org/2815540",
    "letter_count": 1
  },
  {
    "id": "l530",
    "name": "Walenstadt",
    "district": "St. Gallen",
    "country": "Schweiz",
    "lat": 47.12411,
    "lon": 9.31194,
    "geonames": "https://www.geonames.org/2658061",
    "letter_count": 1
  },
  {
    "id": "l531",
    "name": "Waltenhofen",
    "district": "Bayern",
    "country": "Deutschland",
    "lat": 47.67319,
    "lon": 10.30703,
    "geonames": "https://www.geonames.org/2814445",
    "letter_count": 4
  },
  {
    "id": "l532",
    "name": "Warschau",
    "district": "Woiwodschaft Masowien",
    "country": "Polen",
    "lat": 52.22977,
    "lon": 21.01178,
    "geonames": "https://www.geonames.org/756135",
    "letter_count": 1
  },
  {
    "id": "l533",
    "name": "Wartau",
    "district": "St. Gallen",
    "country": "Schweiz",
    "lat": 47.08333,
    "lon": 9.48333,
    "geonames": "https://www.geonames.org/2658049",
    "letter_count": 1
  },
  {
    "id": "l534",
    "name": "Wasenberg",
    "district": "Hessen",
    "country": "Deutschland",
    "lat": 50.71816,
    "lon": 8.36492,
    "geonames": null,
    "letter_count": 1
  },
  {
    "id": "l535",
    "name": "Wattwil",
    "district": "St. Gallen",
    "country": "Schweiz",
    "lat": 47.29955,
    "lon": 9.08657,
    "geonames": "https://www.geonames.org/2658042",
    "letter_count": 3
  },
  {
    "id": "l536",
    "name": "Wechingen",
    "district": "Bayern",
    "country": "Deutschland",
    "lat": 48.89229,
    "lon": 10.61331,
    "geonames": "https://www.geonames.org/2813531",
    "letter_count": 1
  },
  {
    "id": "l537",
    "name": "Weimar",
    "district": "Thüringen",
    "country": "Deutschland",
    "lat": 50.9803,
    "lon": 11.32903,
    "geonames": "https://www.geonames.org/2812482",
    "letter_count": 0
  },
  {
    "id": "l538",
    "name": "Weinfelden",
    "district": "Thurgau",
    "country": "Schweiz",
    "lat": 47.56667,
    "lon": 9.1,
    "geonames": "https://www.geonames.org/2658036",
    "letter_count": 6
  },
  {
    "id": "l539",
    "name": "Weinheim",
    "district": "Baden-Württemberg",
    "country": "Deutschland",
    "lat": 49.54887,
    "lon": 8.66697,
    "geonames": null,
    "letter_count": 2
  },
  {
    "id": "l540",
    "name": "Wellenberg",
    "district": "Thurgau",
    "country": "Schweiz",
    "lat": 47.56568,
    "lon": 8.9466,
    "geonames": "https://www.geonames.org/11604295",
    "letter_count": 1
  },
  {
    "id": "l541",
    "name": "Wesel",
    "district": "Nordrhein-Westfalen",
    "country": "Deutschland",
    "lat": 51.6669,
    "lon": 6.62037,
    "geonames": "https://www.geonames.org/2810678",
    "letter_count": 10
  },
  {
    "id": "l542",
    "name": "Westminster",
    "district": null,
    "country": "England",
    "lat": 51.49937,
    "lon": -0.12846,
    "geonames": null,
    "letter_count": 5
  },
  {
    "id": "l543",
    "name": "Wetter",
    "district": "Nordrhein-Westfalen",
    "country": "Deutschland",
    "lat": 50.902535,
    "lon": 8.722523,
    "geonames": null,
    "letter_count": 6
  },
  {
    "id": "l544",
    "name": "Wetzikon",
    "district": "Zürich",
    "country": "Schweiz",
    "lat": 47.3264,
    "lon": 8.79779,
    "geonames": "https://www.geonames.org/2658010",
    "letter_count": 0
  },
  {
    "id": "l545",
    "name": "Wieliczka",
    "district": null,
    "country": "Polen",
    "lat": 49.98738,
    "lon": 20.06473,
    "geonames": "https://www.geonames.org/755889",
    "letter_count": 3
  },
  {
    "id": "l546",
    "name": "Wien",
    "district": "Wien",
    "country": "Österreich",
    "lat": 48.20849,
    "lon": 16.37208,
    "geonames": "https://www.geonames.org/2761369",
    "letter_count": 15
  },
  {
    "id": "l547",
    "name": "Wiesendangen",
    "district": "Zürich",
    "country": "Schweiz",
    "lat": 47.5217,
    "lon": 8.78967,
    "geonames": "https://www.geonames.org/2658004",
    "letter_count": 1
  },
  {
    "id": "l548",
    "name": "Wiesloch",
    "district": "Baden-Württemberg",
    "country": "Deutschland",
    "lat": 49.29504,
    "lon": 8.69846,
    "geonames": "https://www.geonames.org/2809138",
    "letter_count": 0
  },
  {
    "id": "l549",
    "name": "Wigoltingen",
    "district": "Thurgau",
    "country": "Schweiz",
    "lat": 47.5977,
    "lon": 9.03141,
    "geonames": "https://www.geonames.org/2657998",
    "letter_count": 2
  },
  {
    "id": "l551",
    "name": "Wildberg",
    "district": "Mecklenburg-Vorpommern",
    "country": "Deutschland",
    "lat": 53.6530029,
    "lon": 13.1232854,
    "geonames": null,
    "letter_count": 1
  },
  {
    "id": "l552",
    "name": "Wilna",
    "district": "Wilna",
    "country": "Litauen",
    "lat": 54.68916,
    "lon": 25.2798,
    "geonames": "https://www.geonames.org/593116",
    "letter_count": 3
  },
  {
    "id": "l553",
    "name": "Winchester",
    "district": "Hampshire",
    "country": "England",
    "lat": 51.06513,
    "lon": -1.3187,
    "geonames": "https://www.geonames.org/2633858",
    "letter_count": 1
  },
  {
    "id": "l554",
    "name": "Windsor",
    "district": "England",
    "country": "Grossbritannien",
    "lat": 51.48333,
    "lon": -0.6,
    "geonames": "https://www.geonames.org/2633842",
    "letter_count": 1
  },
  {
    "id": "l555",
    "name": "Winterthur",
    "district": "Zürich",
    "country": "Schweiz",
    "lat": 47.50564,
    "lon": 8.72413,
    "geonames": "https://www.geonames.org/2657970",
    "letter_count": 169
  },
  {
    "id": "l556",
    "name": "Oberwinterthur",
    "district": "Zürich",
    "country": "Schweiz",
    "lat": 47.50792,
    "lon": 8.76037,
    "geonames": "https://www.geonames.org/11963205",
    "letter_count": 0
  },
  {
    "id": "l557",
    "name": "Ober-Winterthur",
    "district": "Zürich",
    "country": "Schweiz",
    "lat": 47.52567,
    "lon": 8.82279,
    "geonames": null,
    "letter_count": 1
  },
  {
    "id": "l558",
    "name": "Wittenberg",
    "district": "Sachsen-Anhalt",
    "country": "Deutschland",
    "lat": 51.8661,
    "lon": 12.64973,
    "geonames": "https://www.geonames.org/7303020",
    "letter_count": 35
  },
  {
    "id": "l560",
    "name": "Wlodislaw",
    "district": null,
    "country": null,
    "lat": 52.64833,
    "lon": 19.067736,
    "geonames": null,
    "letter_count": 0
  },
  {
    "id": "l562",
    "name": "Wodzislaw",
    "district": null,
    "country": null,
    "lat": 52.64833,
    "lon": 19.067736,
    "geonames": null,
    "letter_count": 2
  },
  {
    "id": "l564",
    "name": "Wolfenbüttel",
    "district": "Niedersachsen",
    "country": "Deutschland",
    "lat": 52.16442,
    "lon": 10.54095,
    "geonames": "https://www.geonames.org/2806914",
    "letter_count": 0
  },
  {
    "id": "l565",
    "name": "Wolfsheim",
    "district": "Rheinland-Pfalz",
    "country": "Deutschland",
    "lat": 49.87222,
    "lon": 8.03944,
    "geonames": "https://www.geonames.org/2806596",
    "letter_count": 1
  },
  {
    "id": "l566",
    "name": "Wolp",
    "district": null,
    "country": null,
    "lat": 53.368745,
    "lon": 24.362002,
    "geonames": null,
    "letter_count": 1
  },
  {
    "id": "l567",
    "name": "Worcester",
    "district": "Worcestershire",
    "country": "England",
    "lat": 52.18935,
    "lon": -2.22001,
    "geonames": "https://www.geonames.org/2633563",
    "letter_count": 1
  },
  {
    "id": "l568",
    "name": "Woringen",
    "district": "Bayern",
    "country": "Deutschland",
    "lat": 47.91667,
    "lon": 10.2,
    "geonames": "https://www.geonames.org/2806173",
    "letter_count": 1
  },
  {
    "id": "l569",
    "name": "Worms",
    "district": "Rheinland-Pfalz",
    "country": "Deutschland",
    "lat": 49.63278,
    "lon": 8.35916,
    "geonames": "https://www.geonames.org/2806142",
    "letter_count": 49
  },
  {
    "id": "l570",
    "name": "Wädenswil",
    "district": "Zürich",
    "country": "Schweiz",
    "lat": 47.22683,
    "lon": 8.6687,
    "geonames": "https://www.geonames.org/2658082",
    "letter_count": 2
  },
  {
    "id": "l571",
    "name": "Wülflingen",
    "district": "Zürich",
    "country": "Schweiz",
    "lat": 47.50643,
    "lon": 8.68091,
    "geonames": "https://www.geonames.org/11963167",
    "letter_count": 1
  },
  {
    "id": "l572",
    "name": "l572",
    "district": "Baden-Württemberg",
    "country": "Deutschland",
    "lat": 48.5,
    "lon": 9.0,
    "geonames": "https://www.geonames.org/2953481",
    "letter_count": 0
  },
  {
    "id": "l573",
    "name": "Książ Wielkopolski (Xions)",
    "district": "Großpolen",
    "country": "Polen",
    "lat": 52.0623513,
    "lon": 17.2395591,
    "geonames": null,
    "letter_count": 1
  },
  {
    "id": "l574",
    "name": "York",
    "district": "England",
    "country": "Grossbritannien",
    "lat": 53.95763,
    "lon": -1.08271,
    "geonames": "https://www.geonames.org/2633352",
    "letter_count": 1
  },
  {
    "id": "l576",
    "name": "Zaliczin",
    "district": null,
    "country": null,
    "lat": 49.870888,
    "lon": 20.778359,
    "geonames": null,
    "letter_count": 0
  },
  {
    "id": "l577",
    "name": "Zapfenburg",
    "district": "Thüringen",
    "country": "Deutschland",
    "lat": 51.543686,
    "lon": 9.537542,
    "geonames": null,
    "letter_count": 1
  },
  {
    "id": "l578",
    "name": "Zator",
    "district": "Moravskoslezsko",
    "country": "Tschechien",
    "lat": 49.9859,
    "lon": 19.431,
    "geonames": null,
    "letter_count": 0
  },
  {
    "id": "l579",
    "name": "Ziegenhain",
    "district": "Hessen",
    "country": "Deutschland",
    "lat": 50.91522,
    "lon": 9.23754,
    "geonames": "https://www.geonames.org/2804390",
    "letter_count": 1
  },
  {
    "id": "l580",
    "name": "Zittau",
    "district": "Sachsen",
    "country": "Deutschland",
    "lat": 50.89772,
    "lon": 14.80764,
    "geonames": "https://www.geonames.org/2804008",
    "letter_count": 12
  },
  {
    "id": "l581",
    "name": "Znaim",
    "district": "Südmährische Region",
    "country": "Tschechien",
    "lat": 48.8555,
    "lon": 16.0488,
    "geonames": "https://www.geonames.org/3061344",
    "letter_count": 1
  },
  {
    "id": "l582",
    "name": "Zofingen",
    "district": "Aargau",
    "country": "Schweiz",
    "lat": 47.28779,
    "lon": 7.94586,
    "geonames": "https://www.geonames.org/2657915",
    "letter_count": 8
  },
  {
    "id": "l583",
    "name": "Zollikon",
    "district": "Zürich",
    "country": "Schweiz",
    "lat": 47.34019,
    "lon": 8.57407,
    "geonames": "https://www.geonames.org/2657912",
    "letter_count": 1
  },
  {
    "id": "l585",
    "name": "Zuoz",
    "district": "Graubünden",
    "country": "Schweiz",
    "lat": 46.60206,
    "lon": 9.95965,
    "geonames": "https://www.geonames.org/2657898",
    "letter_count": 19
  },